creche_id_nature;nom;nature;agr;type;ag_cible;date_ouverture;nb_sections;horaire_ouverture;horaire_fermeture;adresse;code_postal;ville;telephone;email;societe;departement;region;siret;enseigne;enseigne_slug;geo_lat;geo_lng;espace_exterieur;repas;lait;couches;marque_blanche;affichage_logo_enseigne
103;BRUGES;CEP;43;MAC;49;02/01/2012;0;07:30;18:30;Avenue Chaban Delmas - Plage du Lac;33049;BORDEAUX Cedex;09 53 91 76 26;bruges@lpcr.fr;LPCR GROUPE;33;;528570229;;les-petits-chaperons-rouges;44.8855019;-0.5860462000000553;True;True;True;True;False;True
109;GENNEVILLIERS;CEP;31;MAC;49;17/10/2011;0;08:00;19:00;5 ALLEE MISSAK MANOUCHIAN;92230;GENNEVILLIERS;01 41 05 76 61;gennevilliers@lpcr.fr;LPCR GROUPE;92;;528570229;;les-petits-chaperons-rouges;48.9207045;2.301696799999945;True;True;True;True;False;True
11_PART;2 Micro crèches Les Bébés Laitiers & Laitiers;PART;10;Micro-crèche;0;          ;0;08:00;19:00;9 rue des Laitières;94300;Vincennes;;;;;;;Eiduloa;eiduloa;48.84829130;2.42560750;True;True;True;False;False;True
114;LES MALICIEUX DE KARR'HIBOUX;CEP;9;MIC;9;24/10/2011;0;08:30;18:30;1 Rue Alphonse Karr;06000;NICE;04 37 46 45 24;nice@crechesetmalices.com;LPCR GROUPE;06;;528570229;;creches-et-malices;43.69859659999999;7.266137399999934;True;True;True;True;False;True
117;GARGES LES GONESSE (DSP);DSP;60;MAC;60;15/12/2011;0;07:30;19:00;12 rue du Tiers Pot;95140;GARGES LES GONESSE;01 41 05 76 60;garges.gonesse@lpcr.fr;LPCR GARGES-LES-GONESSE;95;;538686411;;;48.9652677;2.3959425000000465;True;True;True;True;False;False
120_PART;Anna'gram;PART;28;Mac;0;          ;0;08:00;20:00;10 rue Camille Pelletan;66000;Perpignan;;;;66;;;Crèches de France;creches-de-france;42.69953310;2.88817230;True;True;True;True;False;True
123;STRASBOURG;CEP;54;MAC;54;01/10/2012;0;07:30;19:00;2-4 rue de Vendenheim - 6 rue de Niederbronn;67000;STRASBOURG;03 83 22 19 03;strasbourg@lpcr.fr;LPCR GRAND EST;67;;533474094;;les-petits-chaperons-rouges;48.5917474;7.746614300000033;True;True;True;True;False;True
125_PART;L'Arche des Pitchounets;PART;20;Mac;0;          ;0;07:30;18:30;Route de Savigny;69210;Sain Bel;;;;69;;;Crèches de France;creches-de-france;45.81249280;4.59435040;True;True;True;True;False;True
1256_PART;Little Crèche Faisanderie;PART;10;Micro-crèche;0;          ;1;08:45;18:15;10 rue de la Grande-Bretagne;77300;Fontainebleau;;;;;;;LITTLE CRECHE FAISANDERIE;;48.409374;2.689223;True;True;True;True;False;True
1266_PART;Sweet Môme;PART;28;MAC;0;          ;3;07:30;19:00;74D rue de Paris;35000;Rennes;;;;35;;;MUTUALITE ENFANCE FAMILLE;;48.11302730000001;-1.6609611000000086;False;True;True;True;False;True
1272_PART;Schwabing;PART;24;MAC;0;01/01/2012;2;08:00;17:30;Klopstockstraße 4;80804;Munich;;;;;;;INFANTERIX;;48.17604499999999;11.579267999999956;True;True;False;True;False;True
1277_PART;Westpark;PART;24;MAC;0;01/09/2015;2;08:00;17:30;Heiterwanger Str. 36;81379;Munich;;;;;;;INFANTERIX;;48.12181;11.526900000000069;True;False;False;False;False;True
133_PART;Les P'tits Princes;PART;35;Mac;0;          ;0;08:00;19:30;31 rue Général Delestraint;75016;Paris;;;;;;;Crèches de France;creches-de-france;48.84149770;2.25801660;False;True;True;True;False;True
134_PART;Lucioles et Compagnie;PART;23;Mac;0;          ;0;07:00;20:00;75 rue Bayen;75017;Paris;;;;75;;;Crèches de France;creches-de-france;48.88372860;2.28967170;False;True;True;True;False;True
138;NOGENT MANDARINE (DSP);DSP;60;MAC;60;01/09/2012;0;07:30;19:00;4 RUE DE LA MUETTE;94130;NOGENT SUR MARNE;01 41 05 76 64;nogent.mandarine@lpcr.fr;LPCR NOGENT SUR MARNE;94;;753523034;;;48.8352163;2.4808788000000277;True;True;True;True;False;False
14;ANNECY;CEP;34;MAC;34;02/04/2007;0;07:30;19:00;1 rue des Bouvières;74940;ANNECY LE VIEUX;09 50 03 29 00;annecy@lpcr.fr;LPCR GROUPE;74;;528570229;;les-petits-chaperons-rouges;45.9279087;6.168158299999959;True;True;True;True;False;True
146;MARNAZ (DSP);DSP;35;MAC;35;21/10/2013;0;06:30;18:30;65 rue Antoine de Saint Exupéry;74460;MARNAZ;04 37 46 45 30;marnaz@lpcr.fr;LPCR COLLECTIVITES PUBLIQUES;74;;494149990;;;46.0605959;6.526859999999942;True;True;True;True;False;False
156;PARIS 13 RUNGIS (ART.30);DSP Paris;86;MAC;86;06/01/2014;0;08:00;19:00;1-3 Place Rungis;75013;PARIS;01 53 62 40 50;paris.13@lpcr.fr;LPCR PARIS 13;75;;799563655;;;48.8220225;2.346152599999982;True;True;True;True;False;False
157;HCL CALUIRE;DSP;60;MAC;60;01/09/2014;0;06:00;22:00;43 rue Margnolles;69300;CALUIRE ET CUIRE;04 37 46 45 40;caluire@lpcr.fr;LPCR CP RHONE;69;;798025243;;;45.7862707;4.839762800000017;True;True;True;True;False;False
164;LE PLESSIS ROBINSON;CEP;41;MAC;49;05/05/2014;0;07:45;19:00;Centre d'Affaires La Boursidière - rue de la Boursidière;92357;LE PLESSIS ROBINSON;01 55 90 44 51;plessis.robinson@lpcr.fr;LPCR GROUPE;92;;528570229;;les-petits-chaperons-rouges;48.77380549999999;2.240494099999978;True;True;True;True;False;True
168;GEX THOIRY CREUX (DSP);DSP;48;MAC;48;01/09/2014;0;07:00;19:00;288 rue du creux;01710;THOIRY;04 37 46 17 77;gex.thoiry@lpcr.fr;LPCR THOIRY;01;;790245930;;;46.2312613;5.984403100000009;True;True;True;True;False;False
173;MONTROUGE VERDIER;CEP;43;MAC;43;07/04/2008;0;08:30;19:30;19/25 avenue Gambetta;92120;MONTROUGE;01 55 90 44 49;montrouge.verdier@lpcr.fr;LPCR GROUPE;92;;528570229;;les-petits-chaperons-rouges;48.8138172;2.323197100000016;True;True;True;True;False;True
177;LES MALICIEUX DE SOLFERINO;CEP;10;MIC;10;08/11/2010;0;08:30;19:00;23 rue de Solférino;59000;LILLE;03 20 31 62 41;lille.solferino@crechesetmalices.com;LPCR GROUPE;59;;528570229;;creches-et-malices;50.6347087;3.048357200000055;True;True;True;True;False;True
179;LES MALICIEUX DES INVALIDES;CEP;10;MIC;10;20/06/2011;0;08:30;19:00;38 boulevard des Invalides;75007;PARIS;01 70 08 19 07;paris.invalides@crechesetmalices.com;LPCR GROUPE;75;;528570229;;creches-et-malices;48.8499828;2.3142844000000196;True;True;True;True;False;True
183;LES MALICIEUX DES TAPISSERIES;CEP;10;MIC;10;17/10/2011;0;08:30;19:00;17 rue des Tapisseries;75017;PARIS;01 70 08 19 88;paris.tapisseries@crechesetmalices.com;LPCR GROUPE;75;;528570229;;creches-et-malices;48.888865;2.307692299999985;True;True;True;True;False;True
191;LES MALICIEUX DE PONDICHERY;CEP;10;MIC;10;27/08/2012;0;08:30;19:00;20 rue de Pondichéry;75015;PARIS;01 80 49 54 13;paris.pondichery@crechesetmalices.com;LPCR GROUPE;75;;528570229;;creches-et-malices;48.8497139;2.297274000000016;True;True;True;True;False;True
100_PART;Arc en Ciel;PART;50;Mac;0;          ;0;07:00;19:00;37 quai du Docteur Dervaux;92600;Asnières sur Seine;;;;;;;Crèches de France;creches-de-france;48.90509240;2.28710670;True;True;True;True;False;True
102_PART;Nid d'Eveil;PART;60;Mac;0;          ;0;07:30;19:30;149 rue Paul Vaillant Couturier;94250;Gentilly;;;;;;;Nid d'Eveil;nid-d-eveil;48.81649140;2.33303640;True;True;True;True;False;True
104_PART;Eragny sur oise;PART;10;Micro-crèche;0;          ;0;07:00;20:00;239 boulevard des Aviateurs Alliés;95610;Eragny sur Oise;;;;95;Ile-de-france;;Au Village de Nounours;au-village-de-nounours;49.01532660;2.09218140;False;True;False;False;False;True
110;MONTREUIL;CEP;43;MAC;60;09/05/2012;0;07:45;18:45;261 rue de Paris - Immeuble Mélies ( entrée crèche 2 rue Armand Carrel);93100;MONTREUIL;01 41 05 76 62;montreuil@lpcr.fr;LPCR GROUPE;93;;528570229;;les-petits-chaperons-rouges;48.8543207;2.416648900000041;True;True;True;True;False;True
110_PART;Balou 3;PART;65;Mac;0;          ;0;08:00;18:00;67 rue Fénellon et Robert Guidicelli;13007;Marseille;;;;13;;;Balou Crèche;balou-creche;43.28610180;5.35465300;True;True;False;True;False;True
111_PART;Paris 20;PART;20;Mac;0;          ;0;07:30;19:00;5 rue de la Justice;75020;Paris;;;;75;;;Bio Crèche;bio-creche;48.86976820;2.40715160;False;True;True;True;False;True
119_PART;La Maison de Batistin;PART;20;Mac;0;          ;0;06:15;18:10;CHU région Saint Omer;62570;Helfaut;;;;62;;;Crèches de France;creches-de-france;50.69732200;2.24321200;True;True;True;True;False;True
121_PART;Petit d'Hom';PART;20;Mac;0;          ;0;07:30;18:30;8 passage Elie de Beaumont;66000;Perpignan;;;;66;;;Crèches de France;creches-de-france;42.69302370;2.87546390;False;True;True;True;False;True
123_PART;Mil Dominis;PART;20;Mac;0;          ;0;07:30;18:30;16 allée des Oliviers;66390;Baixas;;;;66;;;Crèches de France;creches-de-france;42.71256380;2.84616050;True;True;True;True;False;True
1251_PART;LES LOUP'INGS;PART;10;Micro;0;          ;0;07:00;19:00;Zone Pyrène Aéro Pôle Teleport 3;65290;JUILLAN;;;;;;;LES LOUP'INGS;les-loupings;43.2020539;0.02285400000005211;True;True;True;True;True;False
1253_PART;Bois-Colombes;PART;10;;0;          ;1;08:00;19:00;19 rue du Général Leclerc;92270;Bois-Colombes;;;;92;;;HAPPY EVEIL;;48.914099;2.271585;True;True;True;True;False;True
1261_PART;Pomme d'Happy;PART;10;Micro-crèche;0;26/09/2016;1;08:00;19:00;427 avenue du Maréchal de Lattre de Tassigny;33000;Bordeaux;;;;;;;POMME D'HAPPY;;44.8593597;-0.6301971999999978;True;True;False;False;True;False
1274_PART;Aubing;PART;36;MAC;0;          ;2;08:00;17:30;Industriestraße 28;81245;Munich;;;;;;;INFANTERIX;;48.158053;11.41852270000004;True;False;False;False;False;True
128;HESINGUE;CEP;49;MAC;49;23/09/2013;0;07:30;18:30;55 Rue du Loup;68220;HESINGUE;09 73 60 95 94;hesingue@lpcr.fr;LPCR GRAND EST;68;;533474094;;les-petits-chaperons-rouges;47.57914419999999;7.530329199999983;True;True;True;True;False;True
128_PART;Bulles de Savon;PART;21;Mac;0;          ;0;07:00;20:00;38 rue Saint Georges;75009;Paris;;;;75;;;Crèches de France;creches-de-france;48.87632940;2.33739640;False;True;True;True;False;True
130_PART;La P'tite Fée et Rit;PART;26;Mac;0;          ;0;07:00;20:00;54 bis place Saint Charles;75015;Paris;;;;;;;Crèches de France;creches-de-france;48.849813;2.287161200000014;False;True;True;True;False;True
132_PART;Les 1000 et un Pas;PART;17;Mac;0;          ;0;08:00;19:30;17 avenue Théophile Gaultier;75016;Paris;;;;75;;;Crèches de France;creches-de-france;48.85030860;2.27381400;False;True;True;True;False;True
133;AIMARGUES;CEP;31;MAC;31;05/01/2015;0;07:30;18:30;6 Rond Point des Grenadiers;30470;AIMARGUES;04 37 46  45 46;aimargues@lpcr.fr;LPCR GROUPE;30;;528570229;;les-petits-chaperons-rouges;43.69921009999999;4.202785100000028;True;True;True;True;False;True
137;NOGENT LUTINS (DSP);DSP;60;MAC;60;01/09/2012;0;07:30;19:00;2 rue Maréchal Vaillant;94130;NOGENT SUR MARNE;01 41 05 76 63;nogent.jdl@lpcr.fr;LPCR NOGENT SUR MARNE;94;;753523034;;;48.8398536;2.490878299999963;True;True;True;True;False;False
141;PARIS 17 (ART.30);DSP Paris;33;MAC;33;15/10/2012;0;08:00;19:30;10-12 rue Daubigny;75017;PARIS;01 41 05 76 67;paris.17@lpcr.fr;LPCR COLLECTIVITES PUBLIQUES;75;;494149990;;;48.8849898;2.308677100000068;True;True;True;True;False;False
15;LE BOURGET DU LAC;DGP;33;MAC;33;27/11/2007;0;07:45;19:00;SAVOIE TECHNOLAC - 30 allée du Lac d'Aiguebelette - Bâtiment Passerelle 6 - BP 40214;73370;LE BOURGET DU LAC;04 56 42 00 51;chambery@lpcr.fr;LPCR GROUPE;73;;528570229;;;45.6459751;5.866812299999992;True;True;True;True;False;False
154;PARIS 15 LECOCQ (ART.30);DSP Paris;66;MAC;66;08/11/2013;0;07:30;19:00;19 RUE CHARLES LECOCQ;75015;PARIS;01 55 90 44 42;paris.15@lpcr.fr;LPCR PARIS;75;;791514565;;;48.84081510000001;2.294868500000007;True;True;True;True;False;False
160;YUTZ;CEP;36;MAC;36;25/08/2014;0;07:30;18:30;Immeuble Lippmann- 1A Avenue Lippmann;57970;YUTZ;03 83 22 25 41;yutz@lpcr.fr;LPCR GRAND EST;57;;533474094;;les-petits-chaperons-rouges;49.3496164;6.171107900000038;True;True;True;True;False;True
167;NANTES HERRIOT;CEP;31;MAC;31;12/01/2015;0;08:00;19:00;2 rue Président Herriot;44000;NANTES;09 52 22 39 87;nantes@lpcr.fr;LPCR GROUPE;44;;528570229;;les-petits-chaperons-rouges;47.2182243;-1.5595974000000297;True;True;True;True;False;True
17;BELFORT;CEP;46;MAC;46;17/12/2007;0;07:30;19:30;Rue Maurice et Louis de Broglie;90000;BELFORT;03 83 22 19 00;belfort@lpcr.fr;LPCR GROUPE;90;;528570229;;les-petits-chaperons-rouges;47.6457485;6.8442514999999275;True;True;True;True;False;True
18;ENGHIEN LA SOURCE (DSP);DSP;50;MAC;50;02/01/2008;0;07:30;19:00;Maison de la Petite Enfance -18 rue du Temple;95880;ENGHIEN LES BAINS;01 41 05 53 92;enghien.1@lpcr.fr;LPCR COLLECTIVITES PUBLIQUES;95;;494149990;;;48.9753169;2.307544499999949;True;True;True;True;False;False
104;PESSAC;CEP;37;MAC;37;19/09/2011;0;07:30;18:30;Europarc - 8 rue Gustave Hertz;33600;PESSAC;09 52 42 98 85;pessac@lpcr.fr;LPCR GROUPE;33;;528570229;;les-petits-chaperons-rouges;44.7847846;-0.6541273000000274;True;True;True;True;False;True
106_PART;Temple;PART;10;Micro-crèche;0;          ;0;08:30;19:30;6 rue Notre Dame des Nazareth;75003;Paris;;;;75;;;Baboune;baboune;48.86707340;2.36157000;False;True;True;True;False;True
116;MONTPELLIER PARC 2000;CEP;43;MAC;43;26/01/2012;0;07:30;18:30;321 rue Maurice Béjart;34000;MONTPELLIER;04 37 46 45 27;montpellier.parc2000@lpcr.fr;LPCR GROUPE;34;;528570229;;les-petits-chaperons-rouges;43.6184567;3.822255700000028;True;True;True;True;False;True
119;CROISSY;CEP;60;MAC;60;08/11/2012;0;07:30;19:00;16 avenue Carnot;78290;CROISSY SUR SEINE;01 41 05 76 66;croissy@lpcr.fr;LPCR CROISSY;78;;749837605;;les-petits-chaperons-rouges;48.88183009999999;2.1449278999999706;True;True;True;True;False;True
122_PART;O Comme 3 Pommes;PART;30;Mac;0;          ;0;06:30;18:30;Impasse d'Oslow;66000;Perpignan;;;;66;;;Crèches de France;creches-de-france;42.68865910;2.89483320;True;True;True;True;False;True
124_PART;Coccinelle;PART;16;Mac;0;          ;0;07:00;19:00;29 rue Duquesne;69006;Lyon;;;;69;;;Crèches de France;creches-de-france;45.77275600;4.84475760;False;True;True;True;False;True
1254_PART;Les babies de Saint-Cyr;PART;10;;0;01/01/2017;1;08:00;19:00;53/57 Avenue Pierre Curie;78210;Saint-Cyr-L'Ecole;;;;;;;HAPPY EVEIL;;48.79805630000001;2.065939399999934;False;True;True;True;False;True
126_PART;Rondes et Comptines;PART;19;Mac;0;          ;0;08:30;19:30;6 rue Roger Verlomme;75003;Paris;;;;75;;;Crèches de France;creches-de-france;48.85691830;2.36687110;False;True;True;True;False;True
1264_PART;Les P'tits Normands de Verneuil;PART;10;Micro-crèche;0;          ;1;07:00;19:00;Rue Félix Brard;27130;Verneuil-sur-Avre;;;;;;;LES P'TITS NORMANDS;;48.74915319999999;0.9290555999999697;True;True;False;False;False;True
1267_PART;Crech and Do;PART;60;MAC;0;01/09/2010;0;07:00;19:30;205 rue Kerervern;29490;Guipavas;;;;29;;;MUTUALITE ENFANCE FAMILLE;;48.42586159999999;-4.4375775999999405;True;True;True;True;False;True
127_PART;Tralalere;PART;18;Mac;0;          ;0;07:00;20:00;52 rue Madame;75006;Paris;;;;75;;;Crèches de France;creches-de-france;48.84792290;2.33129230;False;True;True;True;False;True
1270_PART;Infanterix Neuhausen 2;PART;24;MAC;0;          ;2;07:30;17:00;Dom-Pedro-Straße 17;80637;Munich;;;;;;;INFANTERIX;;48.1595227;11.542453900000055;True;False;False;False;False;True
1271_PART;Harras;PART;12;MAC;0;          ;2;08:00;17:30;Trautmannstrasse 1;81373;Munich;;;;;;;INFANTERIX;;48.1175875;11.535501000000068;True;False;False;False;False;True
1275_PART;Aubing 2;PART;24;MAC;0;          ;2;08:00;17:30;Kronwinklerstraße 24;81245;Munich;;;;;;;INFANTERIX;;48.15946;11.424729999999954;True;False;False;False;False;True
1282_PART;Les Louvresses;PART;70;MAC;0;01/09/2012;3;08:00;19:30;12 avenue des Louvresses;92230;Gennevilliers;;;;92;;;CAP ENFANT;;48.9439139;2.3058250999999927;True;False;False;False;False;False
129_PART;Ma Petite Île;PART;32;Mac;0;          ;0;07:30;19:30;83 avenue Philippe Auguste;75011;Paris;;;;75;;;Crèches de France;creches-de-france;48.85482280;2.39169690;True;True;True;True;False;True
136;BAILLARGUES (DSP);DSP;21;MAC;21;03/09/2012;0;07:30;18:30;1 allée de la Cigogne - Quartier du Petit Parc;34670;BAILLARGUES;04 37 46 17 72;baillargues@lpcr.fr;LPCR BAILLARGUES;34;;753130475;;;43.6583547;4.013361000000032;True;True;True;True;False;False
136_PART;Les Petits Patapons;PART;20;Mac;0;          ;0;08:00;19:30;56 boulevard de la Mission Marchand;92400;Courbevoie;;;;92;;;Crèches de France;creches-de-france;48.89895880;2.24029310;True;True;True;True;False;True
147;ASNIERES (DSP);DSP;60;MAC;60;02/09/2013;0;07:30;19:30;248 rue du Ménil;92600;ASNIÈRES-SUR-SEINE;01 41 05 53 95;asnieres@lpcr.fr;LPCR COLLECTIVITES PUBLIQUES;92;;494149990;;;48.9258915;2.2746035999999776;True;True;True;True;False;False
151;NORROY LE VENEUR;CEP;29;MAC;29;25/08/2014;0;07:30;18:30;ECOPARC - LE MARIN - Rue Jean-Louis Etienne;57140;NORROY LE VENEUR;03 83 22 25 40;norroy.veneur@lpcr.fr;LPCR GRAND EST;57;;533474094;;les-petits-chaperons-rouges;49.1820113;6.144542099999967;True;True;True;True;False;True
152;YERRES;CEP;54;MAC;54;03/02/2014;0;07:30;18:30;2 ter rue du Stade;91330;YERRES;01 55 90 44 44;yerres@lpcr.fr;LPCR GROUPE;91;;528570229;;les-petits-chaperons-rouges;48.7105595;2.4806925999999976;True;True;True;True;False;True
162;VAULX EN VELIN;CEP;21;MAC;31;30/03/2015;0;07:30;19:00;105 rue Alexandre Dumas;69120;VAULX EN VELIN;04 37 46 45 49;vaulx.velin@lpcr.fr;LPCR GROUPE;69;;528570229;;les-petits-chaperons-rouges;45.7534477;4.933167899999944;True;True;True;True;False;True
171;PARIS 19 CAMBRAI;CEP;27;MAC;31;23/02/2015;0;08:00;19:00;32 Rue de Cambrai;75019;PARIS;01 55 90 44 54;paris.cambrai@lpcr.fr;LPCR GROUPE;75;;528570229;;les-petits-chaperons-rouges;48.89573600000001;2.3821863000000576;True;True;True;True;False;True
178;LA FEDERATION DES MALICIEUX;CEP;10;MIC;10;31/01/2011;0;08:30;19:00;39 rue de la Fédération;75015;PARIS;01 47 34 01 24;paris.federation@crechesetmalices.com;LPCR GROUPE;75;;528570229;;creches-et-malices;48.8540368;2.293763600000034;True;True;True;True;False;True
186;PARIS 3 HAUDRIETTES;CEP;21;MAC;21;20/02/2012;0;08:30;19:00;3 rue des Haudriettes;75003;PARIS;09 81 77 37 40;paris.haudriettes@lpcr.fr;LPCR GROUPE;75;;528570229;;les-petits-chaperons-rouges;48.8613165;2.3576137000000017;True;True;True;True;False;True
193;LES MALICIEUX DE LILLE FLANDRES;CEP;10;MIC;10;18/10/2012;0;08:00;19:00;10 rue à Fiens;59000;LILLE;03 61 26 19 52;lille.flandres@crechesetmalices.com;LPCR GROUPE;59;;528570229;;creches-et-malices;50.6374967;3.068659900000057;True;True;True;True;False;True
193_PART;La Maison des Chatons Hanoï;PART;10;Micro-crèche;0;          ;0;08:00;18:30;8 rue d'Hanoï;69100;Villeurbanne;;;;49;;;Crèches Expansion;creches-expansion;45.77132660;4.86222800;False;True;True;True;False;True
100;MOLSHEIM;CEP;31;MAC;31;28/11/2011;0;07:30;18:30;Immeuble Le Grand Sport  - Rue Gaston Romazzoti;67120;MOLSHEIM;03 83 22 19 01;molsheim@lpcr.fr;LPCR GROUPE;67;;528570229;;les-petits-chaperons-rouges;48.5327121;7.51112379999995;True;True;True;True;False;True
101;AIX DSP ETE;DSP Aix;50;MAC;60;07/06/2011;0;07:30;19:30;1030 rue J R Guillibert G. de la Lauzière;13100;AIX-EN-PROVENCE;;m.tchikaya@lpcr.fr;LPCR DSP AIX;13;;508776150;;;43.4795424;5.367934999999989;True;True;True;True;False;False
107_PART;Martel;PART;10;Micro-crèche;0;          ;0;08:30;19:30;11 rue Martel;75010;Paris;;;;75;;;Baboune;baboune;48.87423710;2.35311600;False;True;True;True;False;True
108_PART;Voltaire;PART;10;Micro-crèche;0;          ;0;08:30;19:30;28 rue Basfroi;75011;Paris;;;;75;;;Baboune;baboune;48.85515270;2.37923740;False;True;True;True;False;True
112_PART;KIDS COOCOON;PART;10;Micro-crèche;0;          ;0;07:30;18:30;6 chemin des Prêles;38240;Meylan;;;;;;;COOCOON;coocoon;45.20851860;5.78540660;True;True;True;True;False;True
115_PART;Lou Mistoulin;PART;10;Micro-crèche;0;          ;0;07:00;19:00;3 boulevard de Cambrai;6000;Nice;;;;6;;;Crèches de France;creches-de-france;43.68897800;7.23525660;True;True;True;True;False;True
118;BOUC BEL AIR LA FARANDOLE;CEP;31;MAC;31;07/01/2013;0;07:30;18:30;RN 8 - Parc Oxylane - La Petite Bastide;13320;BOUC BEL AIR;04 37 46 17 79;bba.farandole@lpcr.fr;LPCR GROUPE;13;;528570229;;les-petits-chaperons-rouges;43.4320359;5.39980300000002;True;True;True;True;False;True
12;LEVALLOIS AUFAN;CEP;35;MAC;35;20/08/2007;0;07:00;19:00;33 rue Marius Aufan;92300;LEVALLOIS PERRET;01 41 05 58 72;levallois.aufan@lpcr.fr;LPCR GROUPE;92;;528570229;;les-petits-chaperons-rouges;48.8893101;2.2852659999999787;True;True;True;True;False;True
1257_PART;Grolée;PART;30;;0;          ;0;07:30;19:00;12 quai Jules Courmont;69002;Lyon;;;;69;;;VILLE DE LYON;;45.760496;4.837314;True;True;False;True;True;False
1258_PART;Saint Cyr l'Ecole;PART;10;Micro-crèche;0;22/08/2016;1;07:30;19:00;65 rue Gabriel Péri;78210;Saint Cyr l'Ecole;;;;78;;;CHAPITEAU BLEU;;48.802491;2.060457;True;True;True;True;False;True
1260_PART;Les loup'ing;PART;10;Micro-crèche;0;01/10/2016;1;07:00;19:00;zone pyrène téléport 3;65290;Juillan;;;;65;;;ADMR;;43.188062;0.007965;True;True;True;True;False;True
1263_PART;Le Jardin d'Irène;PART;40;MAC;0;          ;2;8:00;20:00;770 boulevard Blaise Doumerc;82000;Montauban;;;;82;;;LA MAISON D'IRENE;;44.0189168;1.363582899999983;True;True;True;True;False;True
1276_PART;Blumenau;PART;48;MAC;0;          ;2;08:00;17:30;Terofalstraße 25;80689;Munich;;;;;;;INFANTERIX;;48.12492999999999;11.47569999999996;True;False;False;False;False;True
1283_PART;Parc St Christophe;PART;30;MAC;0;01/09/2014;0;08:00;19:30;10 avenue de l'Entreprise;95000;Cergy;;;;95;;;CAP ENFANT;;49.04171059999999;2.0308052000000316;True;False;False;False;False;False
1284_PART;Atlantis;PART;44;MAC;0;01/03/2016;0;08:00;19:30;36 rue Victor Basch;91300;Massy;;;;91;;;CAP ENFANT;;48.72975109999999;2.270216399999981;True;False;False;False;False;False
130;PLAISIR;CEP;31;MAC;31;02/09/2013;0;07:30;18:30;288 avenue du 19 mars 1962;78370;PLAISIR;01 55 90 44 45;plaisir@lpcr.fr;LPCR GROUPE;78;;528570229;;les-petits-chaperons-rouges;48.8310291;1.9451387000000295;True;True;True;True;False;True
138_PART;Les Oursons;PART;28;Mac;0;          ;0;07:30;19:00;7 rue Lionel Terray;92500;Rueil Malmaison;;;;92;;;Crèches de France;creches-de-france;48.86160650;2.17877730;True;True;True;True;False;True
153;LA MADELEINE HADOUR (DSP);DSP;60;MAC;60;26/08/2013;0;07:30;19:00;35 rue Gambetta;59110;LA MADELEINE;03 83 22 25 19;madeleine.hadour@lpcr.fr;LPCR DSP NORD;59;;795205269;;;50.6550657;3.071767399999999;True;True;True;True;False;False
159;PARIS 19 ANGERS (ART.30);DSP Paris;66;MAC;66;13/01/2014;0;08:00;19:00;6 Rue David d'Angers;75019;PARIS;01 44 52 15 15;paris.angers@lpcr.fr;LPCR PARIS 19;75;;799653522;;;48.8828351;2.3888792000000194;True;True;True;True;False;False
16;MONTPELLIER MILLENAIRE;CEP;60;MAC;60;03/12/2007;0;07:30;19:00;91 rue de Thor - ZAC Eureka - Immeuble Olympie;34000;MONTPELLIER;04 37 46 45 26;montpellier.millenaire@lpcr.fr;LPCR GROUPE;34;;528570229;;les-petits-chaperons-rouges;43.6176179;3.914270100000067;True;True;True;True;False;True
169;LIMONEST;CEP;26;MAC;31;13/10/2014;0;07:30;19:00;462 chemin de Champivost ZAC des Bruyères;69760;LIMONEST;04 37 46 45 39;limonest@lpcr.fr;LPCR GROUPE;69;;528570229;;les-petits-chaperons-rouges;45.8115645;4.775084099999958;True;True;True;True;False;True
185;LES MALICIEUX DE FARADAY;CEP;10;MIC;10;09/01/2012;0;08:30;19:00;18 rue Faraday;75017;PARIS;01 70 08 19 85;paris.faraday@crechesetmalices.com;LPCR GROUPE;75;;528570229;;creches-et-malices;48.8822993;2.293948900000032;True;True;True;True;False;True
187;LES MALICIEUX DE NATIONALE;CEP;10;MIC;10;01/05/2012;0;08:30;19:00;207 rue Nationale;59000;LILLE;03 20 07 56 80;lille.nationale@crechesetmalices.com;LPCR GROUPE;59;;528570229;;creches-et-malices;50.631663;3.050231599999961;True;True;True;True;False;True
195;LEI CALINOUS;DSP;10;MIC;10;07/01/2013;0;07:30;18:00;Impasse des Magnolias, Le Clos;83340;LE THORONET;04 94 67 12 70;thoronet@crechesetmalices.com;LPCR GROUPE;83;;528570229;;;43.4521159;6.302193999999986;True;True;True;True;False;False
196;LES MALICIEUX DE SAINT APOLLINE;CEP;10;MIC;10;21/01/2013;0;08:30;19:00;7/9 rue St Apolline;75003;PARIS;01 80 48 96 92;paris.apolline@crechesetmalices.com;LPCR GROUPE;75;;528570229;;creches-et-malices;48.8687274;2.3544979000000694;True;True;True;True;False;True
2_PART;Paris 11;PART;40;Mac;0;          ;0;07:30;19:00;17 rue du Moulin Joly;75011;Paris;;;;75;;;Bio Crèche;bio-creche;48.86957100;2.37838080;False;True;True;True;False;True
203;LES MALICIEUX DE L'ALOUETTE;CEP;10;MIC;10;23/09/2013;0;08:30;19:00;18 rue du Champ de l'Alouette;75013;PARIS;09 81 71 62 80;paris.alouette@crechesetmalices.com;LPCR GROUPE;75;;528570229;;creches-et-malices;48.8613165;2.3576137000000017;True;True;True;True;False;True
105;MULHOUSE MAC (DSP);DSP;40;MAC;40;05/09/2011;0;07:30;18:30;Les Berges du Bassin - 128 avenue Robert Schumann;68200;MULHOUSE;03 83 22 19 02;mulhouse@lpcr.fr;LPCR MULHOUSE;68;;533771101;;;47.7587878;7.350627300000042;True;True;True;True;False;False
108;MEUDON;CEP;60;MAC;60;31/10/2011;0;07:30;18:45;5/7 rue Jeanne Braconnier;92360;MEUDON LA FORET;01 74 70 05 68;meudon@lpcr.fr;LPCR GROUPE;92;;528570229;;les-petits-chaperons-rouges;48.789249;2.2114535000000615;True;True;True;True;False;True
112;LYON 9;CEP;36;MAC;36;08/11/2011;0;08:00;18:30;14 rue Rhin et Danube;69009;LYON;04 74 72 32 27;lyon9@lpcr.fr;LPCR GROUPE;69;;528570229;;les-petits-chaperons-rouges;45.7829833;4.809162000000015;True;True;True;True;False;True
114_PART;La Maiouneta;PART;32;Mac;0;          ;0;07:00;19:00;1 avenue Gay;6000;Nice;;;;6;;;Crèches de France;creches-de-france;43.70474810;7.25490850;True;True;True;True;False;True
116_PART;Cantarella;PART;60;Mac;0;          ;0;07:00;19:00;116 avenue Sainte Marguerite;6200;Nice;;;;6;;;Crèches de France;creches-de-france;43.67835310;7.21353140;True;True;True;True;False;True
118_PART;Les Petits Pas d'Automne;PART;20;Mac;0;          ;0;06:30;19:30;14 bis rue du 11 Novembre 1918;27300;Bernay;;;;27;;;Crèches de France;creches-de-france;49.08951450;0.60388440;True;True;True;True;False;True
12_PART;La Cabane Enchantée;PART;30;Mac;0;          ;0;07:00;20:00;10 rue d'Alsace;15160;Olivet;;;;15;;;Crèches de France;creches-de-france;47.84124590;1.91860290;True;True;True;True;False;True
1259_PART;Na ! Carquefou - Cassiopée;PART;30;Mac;0;          ;2;08:00;19:00;26 boulevard Ampère;44470;Carquefou;;;;;;;Enfantillages;;47.300741;-1.502198;True;True;True;True;False;True
126;BOULOGNE BILLANCOURT;CEP;60;MAC;60;02/01/2013;0;08:00;19:00;43-45 avenue Edouard Vaillant;92100;BOULOGNE-BILLANCOURT;01 41 05 53 90;boulogne@lpcr.fr;LPCR GROUPE;92;;528570229;;les-petits-chaperons-rouges;48.83570290000001;2.251318900000001;True;True;True;True;False;True
1262_PART;La Maison d'Irène;PART;24;MAC;0;          ;0;06:30;20:30;15 Boulevard Blaise Doumerc;82000;Montauban;;;;;;;LA MAISON D'IRENE;;44.01258300000001;1.3629880999999386;True;True;True;True;False;True
1265_PART;Les P'tits Normands d'Evreux;PART;10;Micro-crèche;0;01/09/2015;1;07:00;19:00;337 rue Gay Lussac;27000;Evreux;;;;27;;;LES P'TITS NORMANDS;;49.02567210000001;1.1839407999999594;True;True;False;False;False;True
1278_PART;Les Bébés du Bouldou;PART;10;Micro-crèche;0;          ;1;;;Les Jardins de la Maresque - Le Bouldou;12510;Druelle;;;;12;;;Crèches Expansion;;44.3679955;2.5178562999999485;False;False;False;False;False;True
13;LIMOGES;DGP;40;MAC;40;27/08/2007;0;07:00;19:30;18 rue Fernand Malinvaud;87000;LIMOGES;05 55 48 00 81;limoges@lpcr.fr;LPCR GROUPE;87;;528570229;;;45.8085116;1.2662152000000333;True;True;True;True;False;False
131_PART;Les P'tits Colibris;PART;24;Mac;0;          ;0;08:00;19:00;59 rue Blomet;75015;Paris;;;;75;;;Crèches de France;creches-de-france;48.84207990;2.30439040;False;True;True;True;False;True
139;GEX ST GENIS POUILLY (DSP);DSP;45;MAC;45;02/01/2013;0;07:00;19:00;25 rue Lucie Aubrac;01630;SAINT GENIS POUILLY;04 37 46 17 78;gex.pouilly@lpcr.fr;LPCR PAYS DE GEX;01;;505248880;;;46.25093390000001;6.027339100000063;True;True;True;True;False;False
16_PART;Bibliothèque Nationale de France;PART;26;Mac;0;          ;0;08:00;19:30;15 bis rue René Goscinny;75013;Paris;;;;;;;Les Petits Tourbillons;les-petits-tourbillons;48.83030510;2.37965330;False;True;True;True;False;True
161;SAINT DENIS;CEP;49;MAC;49;25/08/2014;0;07:45;19:00;ZAC Landy Pleyel - Immeuble City One - 5 rue Jean-Philippe Rameau;93210;SAINT DENIS;01 55 90 44 52;saint.denis@lpcr.fr;LPCR GROUPE;93;;528570229;;les-petits-chaperons-rouges;48.9209392;2.35625129999994;True;True;True;True;False;True
165;PARIS 17 LEVIS;CEP;13;MAC;13;01/09/2014;0;08:30;19:00;22 rue de Tocqueville (Accès piétons : 7 place de Lévis);75017;PARIS;01 55 90 44 53;paris.levis@lpcr.fr;LPCR GROUPE;75;;528570229;;les-petits-chaperons-rouges;48.88299230000001;2.3132914000000255;True;True;True;True;False;True
175;LA BOITE À MALICES DU CHERCHE-MIDI;CEP;10;MIC;10;13/09/2010;0;08:30;19:00;129 rue du Cherche Midi;75015;PARIS;01 80 49 54 10;paris.cherchemidi@crechesetmalices.com;LPCR GROUPE;75;;528570229;;creches-et-malices;48.8449357;2.318498800000043;True;True;True;True;False;True
180;LES MALICIEUX DE BACON;CEP;10;MIC;10;20/06/2011;0;08:30;19:00;11 rue Roger Bacon;75017;PARIS;01 70 08 19 84;paris.bacon@crechesetmalices.com;LPCR GROUPE;75;;528570229;;creches-et-malices;48.8828374;2.28947160000007;True;True;True;True;False;True
189;LES MALICIEUX DE PAUL ADAM;CEP;10;MIC;10;21/05/2012;0;08:30;19:00;11-17 avenue Paul Adam;75017;PARIS;01 70 08 19 87;paris.adam@crechesetmalices.com;LPCR GROUPE;75;;528570229;;creches-et-malices;48.88746489999999;2.29613889999996;True;True;True;True;False;True
191_PART;La Maison des Chatons;PART;10;Micro-crèche;0;          ;0;08:00;18:30;25 rue Alexis Perroncel;69100;Villeurbanne;;;;44;;;Crèches Expansion;creches-expansion;45.77460790;4.87245700;False;True;True;True;False;True
192;LES MALICIEUX DE LACHARRIERE;CEP;10;MIC;10;03/09/2012;0;08:30;19:00;9 rue Lacharriere;75011;PARIS;01 80 49 24 82;paris.lacharriere@crechesetmalices.com;LPCR GROUPE;75;;528570229;;creches-et-malices;48.86218419999999;2.378132800000003;True;True;True;True;False;True
192_PART;Gratte Ciel;PART;10;Micro-crèche;0;          ;0;08:00;18:30;59 rue Paul Verlaine;69100;Villeurbanne;;;;44;;;Crèches Expansion;creches-expansion;45.76438750;4.88058290;False;True;True;True;False;True
199;LES MALICIEUX DE JAVEL;CEP;10;MIC;10;20/05/2013;0;08:30;19:00;187, rue de Javel;75015;PARIS;01 80 49 54 12;paris.javel@crechesetmalices.com;LPCR GROUPE;75;;528570229;;creches-et-malices;48.8404263;2.2922730999999885;True;True;True;True;False;True
203_PART;Alice Pain d'Epice;PART;38;Mac;0;          ;0;07:00;19:00;Rue des 9 Chemins de Douai;59121;Prouvy;;;;95;;;Des Etoiles Plein les Yeux;des-etoiles-plein-les-yeux;50.33396600;3.41852280;False;True;False;False;False;True
18_PART;Saint Cloud;PART;40;Mac;0;          ;0;08:15;19:10;58 rue Gounod;92210;Saint Cloud;;;;;;;Little Frogs;little-frogs;48.84272200;2.20905950;True;True;True;True;False;True
182;LES MALICIEUX DE SWEETCO;CEP;10;MIC;10;08/09/2011;0;08:00;19:00;2 rue du maréchal Leclerc;59115;LEERS;03 61 26 19 70;leers@crechesetmalices.com;LPCR GROUPE;59;;528570229;;creches-et-malices;50.6803663;3.2409651000000395;True;True;True;True;False;True
184;LES MALICIEUX DE MALESHERBES;CEP;10;MIC;10;24/10/2011;0;08:30;19:00;63 boulevard Malesherbes;75008;PARIS;01 70 08 19 61;paris.malesherbes@crechesetmalices.com;LPCR GROUPE;75;;528570229;;creches-et-malices;48.8762278;2.317588999999998;True;True;True;True;False;True
19;ENGHIEN LE LAC (DSP);DSP;50;MAC;50;02/01/2008;0;07:30;19:00;Maison de la Petite Enfance -18 rue du Temple;95880;ENGHIEN LES BAINS;01 41 05 53 91;enghienrdc@lpcr.fr;LPCR COLLECTIVITES PUBLIQUES;95;;494149990;;;48.9753169;2.307544499999949;True;True;True;True;False;False
19_PART;Les Pitchouns d'Athélia;PART;72;Mac;0;          ;0;08:00;18:00;515 avenue de la Tramontane;13600;La Ciotat;;;;13;;;Crèches du Sud;creches-du-sud;43.20616580;5.60197210;True;True;True;True;False;True
202;PARIS 18 MONTCALM;CEP;18;MAC;18;26/08/2013;0;08:30;19:00;48/50 rue Montcalm;75018;PARIS;01 70 08 19 17;paris.montcalm@lpcr.fr;LPCR GROUPE;75;;528570229;;les-petits-chaperons-rouges;48.8939506;2.3398171999999704;True;True;True;True;False;True
207;LES MALICIEUX DE MOUVAUX;CEP;10;MIC;10;18/03/2014;0;08:00;19:00;604 rue de Tourcoing;59420;MOUVAUX;09 82 50 62 85;mouvaux@crechesetmalices.com;LPCR GROUPE;59;;528570229;;creches-et-malices;50.7164461;3.1389537999999675;True;True;True;True;False;True
213_PART;Le Jardin des Couleurs;PART;30;Micro-crèche;0;          ;0;06:00;20:00;Avenue de l'Europe;59400;Fontaine Notre Dame;;;;59;;;Des Etoiles Plein les Yeux;des-etoiles-plein-les-yeux;50.17267780;3.20045930;True;True;False;False;False;True
217;LES MALICIEUX DE DAMREMONT;CEP;10;MIC;10;03/11/2014;0;08:30;19:00;89 rue Damrémont;75018;PARIS;01 70 08 19 16;paris.damremont@crechesetmalices.com;LPCR GROUPE;75;;528570229;;creches-et-malices;48.8939786;2.3364520000000084;True;True;True;True;False;True
218;LES MALICIEUX DE LAFAYETTE;CEP;10;MIC;10;01/01/2015;0;08:30;19:00;166 rue Lafayette;75010;PARIS;01 40 34 26 59;paris.lafayette@crechesetmalices.com;LPCR GROUPE;75;;528570229;;creches-et-malices;48.8796013;2.3585308000000396;True;True;True;True;False;True
220;LES MALICIEUX DE PELLEVOISIN;CEP;10;MIC;10;12/01/2015;0;07:30;19:00;207 Rue du Faubourg de Roubaix;59000;LILLE;09 86 18 66 23;lille.pellevoisin@crechesetmalices.com;LPCR GROUPE;59;;528570229;;creches-et-malices;50.6423105;3.0879846999999927;True;True;True;True;False;True
224;LES MALICIEUX DE MAZARGUES;CEP;10;MIC;10;01/09/2015;0;08:00;18:30;81 bd de la Concorde;13009;MARSEILLE;04 13 42 00 55;marseille.mazargues@crechesetmalices.com;LPCR GROUPE;13;;528570229;;creches-et-malices;43.2478162;5.4010544999999865;True;True;True;True;False;True
226_PART;Saint Sébastien de Morsent;PART;10;Micro-crèche;0;          ;0;08:00;18:30;22 rue du Général de Gaulle;27180;Saint Sébastien de Morsent;;;;;;;Happy Zou ;prismes-happy-zou-normandie;49.00782980;1.08501160;False;True;True;True;False;True
229;KEMBS;CEP;29;MAC;29;14/09/2015;0;07:30;18:30;8 Allée des Marronniers;68 680;KEMBS;03 68 10 00 19;kembs@lpcr.fr;LPCR GRAND EST;68;;533474094;;les-petits-chaperons-rouges;47.6579175;7.5061379999999644;True;True;True;True;False;True
230_PART;Morillons;PART;10;Micro-crèche;0;          ;0;08:00;18:30;3 rue des Morillons;75015;Paris;;;;;;;Happy Zou ;happy-zou-paris;48.83439270;2.29628460;False;True;False;True;False;True
235;CERGY;CEP;26;MAC;26;01/09/2015;0;08:00;19:30;BUROPLUS 07 - 7 rue de la Grande Ourse - bât 7;95800;CERGY;01 75 72 00 00;cergy@lpcr.fr;LPCR GROUPE;95;;528570229;;les-petits-chaperons-rouges;49.053104;2.0291071999999986;True;True;True;True;False;True
238;BOULOGNE BILLANCOURT BELLEVUE;CEP;24;MAC;24;01/09/2015;0;08:00;19:00;95bis/97 rue de Bellevue;92100;BOULOGNE BILLANCOURT;01 74 71 08 79;boulogne.sevres@lpcr.fr;LPCR GROUPE;92;;528570229;;les-petits-chaperons-rouges;48.8335222;2.2318917999999712;True;True;True;True;False;True
238_PART;Courlancy;PART;10;Micro-crèche;0;          ;0;08:00;18:30;14 rue du Général de Gaulle;51100;Reims;;;;;;;Happy Zou ;happy-zou-reims;49.24628830;4.01845270;False;True;False;True;False;True
239;LES MALICIEUX DE PIGALLE;CEP;10;MIC;10;31/08/2015;0;08:30;19:00;59 rue Jean Baptiste Pigalle;75 009;PARIS;01 70 08 16 93;paris.pigalle@crechesetmalices.com;LPCR GROUPE;75;;528570229;;creches-et-malices;48.8809378;2.3355291999999963;True;True;True;True;False;True
239_PART;Clairmarais;PART;10;Micro-crèche;0;          ;0;08:00;18:30;9 rue des Romains;51100;Reims;;;;;;;Happy Zou ;happy-zou-reims;49.26218650;4.02084160;False;True;False;True;False;True
243;LES MALICIEUX DU LAC;CEP;10;MIC;0;21/05/2015;0;08:00;19:00;41 rue du Lac;69003;LYON;04 27 18 00 56;lyon.lac@crechesetmalices.com;LPCR GROUPE;69;;528570229;;creches-et-malices;45.754903;4.855188699999985;True;True;True;True;False;True
244;LES MALICIEUX DE CUVIER;CEP;10;MIC;10;21/05/2015;0;08:00;18:30;169 rue Cuvier;69006;LYON;04 27 18 00 57;lyon.cuvier@crechesetmalices.com;LPCR GROUPE;69;;528570229;;creches-et-malices;45.76798160000001;4.855980899999963;True;True;True;True;False;True
246;ISSY LES MOULINEAUX ARCHE DE NOE (DSP);DSP;30;MAC;30;01/08/2015;0;08:00;19:30;8 bd GARIBALDI;92130;ISSY LES MOULINEAUX;01 41 23 84 88;issy.arche@lpcr.fr;LPCR ISSY LES MOULINEAUX ARCHE DE NOE;92;;800154791;;;48.8238575;2.262274599999955;True;True;True;True;False;False
25;SAINT QUENTIN;CEP;30;MAC;47;28/04/2008;0;07:30;18:30;Parc d'activité du Bois de la Choque - Site Créatis;02100;SAINT QUENTIN;03 83 22 19 06;saint.quentin@lpcr.fr;LPCR GROUPE;02;;528570229;;les-petits-chaperons-rouges;49.85825399999999;3.2636870000000044;True;True;True;True;False;True
251;LES MALICIEUX DE WAZEMMES;CEP;10;MIC;10;31/08/2015;0;08:30;19:00;405 RUE LEON GAMBETTA;59000;LILLE;03 59 09 06 67;lille.wazemmes@crechesetmalices.com;LPCR GROUPE;59;;528570229;;creches-et-malices;50.6258316;3.046168200000011;True;True;True;True;False;True
194;LES MALICIEUX DE BONNE GRAINE;CEP;10;MIC;10;05/11/2012;0;08:30;19:00;4 passage de la Bonne Graine;75011;PARIS;09 83 55 65 51;paris.graine@crechesetmalices.com;LPCR GROUPE;75;;528570229;;creches-et-malices;48.8513682;2.376882300000034;True;True;True;True;False;True
196_PART;Le Petit Monde de Léopold;PART;10;Micro-crèche;0;          ;0;07:00;19:00;17 avenue Jacques Duclos;95270;Saint Martin du Tertre;;;;85;;;Crèches Expansion;creches-expansion;49.10482830;2.34165170;False;True;True;True;False;True
197_PART;La Maison de la Marlinière;PART;10;Micro-crèche;0;          ;0;07:30;18:30;3 place Sainte Beuve;95270;Belloy en France;;;;85;;;Crèches Expansion;creches-expansion;49.08940980;2.36756770;True;True;True;True;False;True
198_PART;Les Bourguignons;PART;10;Micro-crèche;0;          ;0;08:00;19:00;1 rue Pierre Joigneaux;92600;Asnières sur Seine;;;;85;;;Demain 2 Pieds;demain-2-pieds;48.91013060;2.27208870;False;True;True;True;False;True
200;LES MALICIEUX DE MOLINEL;CEP;10;MIC;10;21/05/2013;0;08:00;19:00;Place Gentil Muiron;59000;LILLE;03 61 26 19 53;lille.molinel@crechesetmalices.com;LPCR GROUPE;59;;528570229;;creches-et-malices;50.6313034;3.0660620999999537;True;True;True;True;False;True
200_PART;Les Petits Pas du Tertre;PART;25;Mac;0;          ;0;07:00;19:00;74 avenue du Général de Gaulle;10410;Saint Parres aux Tertres;;;;87;;;Des Etoiles Plein les Yeux;des-etoiles-plein-les-yeux;48.29661410;4.12611760;True;True;False;False;False;True
207_PART;Dansons la Capucine;PART;38;Mac;0;          ;0;07:00;19:00;Rue Lusanger;59167;Lallaing;;;;59;;;Des Etoiles Plein les Yeux;des-etoiles-plein-les-yeux;50.38061490;3.17822920;False;True;False;False;False;True
208;LES MALICIEUX DE BERNARDY;CEP;10;MIC;10;14/04/2014;0;08:00;18:30;26 rue Jean de Bernardy;13001;MARSEILLE;09 81 14 00 15;marseille.bernardy@crechesetmalices.com;LPCR GROUPE;13;;528570229;;creches-et-malices;43.30233319999999;5.388781600000016;True;True;True;True;False;True
209;LES MALICIEUX DES TERTIALES;CEP;10;MIC;10;14/04/2014;0;08:00;19:00;2 rue Henry Derycke;59300;VALENCIENNES;09 81 98 03 45;valenciennes@crechesetmalices.com;LPCR GROUPE;59;;528570229;;creches-et-malices;50.3650781;3.526676199999997;True;True;True;True;False;True
214_PART;Au Clair de la Lune;PART;38;Mac;0;          ;0;07:00;19:00;Rue Faidherbe;59490;Somain;;;;59;;;Des Etoiles Plein les Yeux;des-etoiles-plein-les-yeux;50.35585200;3.28062000;True;True;False;False;False;True
216_PART;Souris Verte;PART;38;Mac;0;          ;0;05:00;21:00;485 rue Clémenceau;59552;Lambres Lez Douai;;;;59;;;Des Etoiles Plein les Yeux;des-etoiles-plein-les-yeux;50.35636980;3.05825880;True;True;False;False;False;True
222;LES MALICIEUX DE MAGENTA;CEP;10;MIC;10;01/03/2015;0;08:30;19:00;36 boulevard Magenta;75010;PARIS;01 80 49 24 52;paris.magenta@crechesetmalices.com;LPCR GROUPE;75;;528570229;;creches-et-malices;48.872078;2.3602736000000277;True;True;True;True;False;True
224_PART;Pantin;PART;10;Micro-crèche;0;          ;0;08:00;19:00;5 rue de la Liberté;93500;Pantin;;;;;;;Rire et Découvrir;groupe-rire-et-decouvrir;48.89278020;2.40295520;False;False;False;False;False;True
23;ROUBAIX EST;CEP;45;MAC;45;14/04/2008;0;07:30;19:30;Parc d'activités de Roubaix Est - 4 Rue du Catillon;59115;LEERS;09 62 31 15 43;roubaix@lpcr.fr;LPCR GROUPE;59;;528570229;;les-petits-chaperons-rouges;50.6678525;3.238310599999977;True;True;True;True;False;True
234_PART;Victor Basch;PART;10;Micro-crèche;0;          ;0;08:00;18:30;40 rue Victor Basch;92120;Montrouge;;;;;;;Happy Zou ;happy-zou-paris;48.81233510;2.31989880;False;True;False;True;False;True
236_PART;Villiers;PART;10;Micro-crèche;0;          ;0;08:00;18:30;4 rue de Villiers;92300;Levallois Perret;;;;;;;Happy Zou ;happy-zou-paris;48.88731540;2.28311860;False;True;False;True;False;True
237;ATHIS-MONS;CEP;31;MAC;31;14/09/2015;0;07:30;19:00;41/47, avenue François Mitterrand;91200;ATHIS-MONS;01 74 06 21 44;athis.mons@lpcr.fr;LPCR GROUPE;91;;528570229;;les-petits-chaperons-rouges;48.70207120000001;2.3714707000000317;True;True;True;True;False;True
241_PART;Pargny les Reims;PART;10;Micro-crèche;0;          ;0;08:00;18:30;2 rue des Ormes;51422;Pargny les Reims;;;;;;;Happy Zou ;happy-zou-reims;49.25496;3.951907799999958;False;True;False;True;False;True
248_PART;Gallieni;PART;10;Micro-crèche;0;          ;0;08:00;18:30;38 rue Galliéni;92600;Asnières sur Seine;;;;;;;Happy Zou ;happy-zou-reims;48.90906580;2.28673560;False;True;False;True;False;True
250;LES MALICIEUX DE CURIE;CEP;10;MIC;10;19/10/2015;0;08:30;19:00;1 Rue Curie;92 150;SURESNES;01 74 70 05 47;suresnes@crechesetmalices.com;LPCR GROUPE;92;;528570229;;creches-et-malices;48.87964040000001;2.2338492999999744;True;True;True;True;False;True
257_PART;Bezons;PART;25;Mac;0;          ;0;06:30;19:30;123 rue de l'Agriculture;95870;Bezons;;;;;;;IEPC;;48.93103570;2.21588270;False;True;True;True;True;False
258;LES MALICIEUX DE FLORALIA;CEP;10;MIC;10;22/02/2016;0;08:00;18:30;72 rue Floralia;13008;MARSEILLE;04 13 42 00 68;marseille.floralia@crechesetmalices.com;LPCR GROUPE;13;;528570229;;creches-et-malices;43.2440447;5.392365400000017;True;True;True;True;False;True
259;RUEIL 2;CEP;14;MAC;14;22/02/2016;0;07:30;19:00;85 bis avenue Albert 1er;92500;RUEIL MALMAISON;01 74 71 10 09;rueil2@lpcr.fr;LPCR GROUPE;92;;528570229;;les-petits-chaperons-rouges;48.8838251;2.1742857000000413;True;True;True;True;False;True
261_PART;Paris 18;PART;17;Mac;0;          ;0;07:30;19:00;5 impasse Marie Blanche;75018;Paris;;;;;;;Kids Cool;kids-cool;48.88584450;2.33249440;False;True;True;True;False;True
262;LES MALICIEUX DE CORBIERE;CEP;10;MIC;10;04/04/2016;0;08:30;18:30;43 Bd Tristan Corbière;13012;MARSEILLE;04 13 42 00 67;marseille.corbiere@crechesetmalices.com;LPCR GROUPE;13;;528570229;;creches-et-malices;43.314908;5.4171268000000055;True;True;True;True;False;True
262_PART;Bourg la Reine;PART;30;Mac;0;          ;0;07:30;19:00;23 avenue du Général Leclerc;92014;Bourg la Reine;;;;;;;Kids Cool;kids-cool;48.78574600;2.31847500;True;True;True;True;False;True
206;LES MALICIEUX DE CONDORCET;CEP;10;MIC;10;20/01/2014;0;08:30;19:00;60 Rue Condorcet;75009;PARIS;01 80 48 99 90;paris.condorcet@crechesetmalices.com;LPCR GROUPE;75;;528570229;;creches-et-malices;48.8804638;2.342057000000068;True;True;True;True;False;True
21;RUNGIS VILLENEUVE;CEP;48;MAC;48;14/01/2008;0;07:30;19:00;47 rue de Villeneuve - BP 80164;94150;RUNGIS;01 71 33 14 10;rungis.orly@lpcr.fr;LPCR GROUPE;94;;528570229;;les-petits-chaperons-rouges;48.74271049999999;2.353978600000005;True;True;True;True;False;True
213;LES MALICIEUX DE COUDRAY;CEP;10;MIC;10;08/09/2014;0;08:30;19:00;6-8 rue Tronson du Coudray;75008;PARIS;01 70 08 19 60;paris.coudray@crechesetmalices.com;LPCR GROUPE;75;;528570229;;creches-et-malices;48.87323989999999;2.322354799999971;True;True;True;True;False;True
214;LES MALICIEUX DE DAUNAY;CEP;10;MIC;10;15/09/2014;0;08:30;19:00;8 Impasse Daunay;75011;PARIS;01 80 49 24 81;paris.daunay@crechesetmalices.com;LPCR GROUPE;75;;528570229;;creches-et-malices;48.8602836;2.387107300000025;True;True;True;True;False;True
216;LES MALICIEUX DE PLAN DE CAMPAGNE;CEP;10;MIC;10;13/10/2014;0;08:00;18:30;1948 chemin de Bellepeire;13170;LES PENNES MIRABEAU;04 13 42 00 88;pennes.mirabeau@crechesetmalices.com;LPCR GROUPE;13;;528570229;;creches-et-malices;43.41509850000001;5.338817800000015;True;True;True;True;False;True
218_PART;La Fusée d'Eloi et Louise;PART;38;Mac;0;          ;0;07:00;19:00;Parc des activités de l'Etoile;59760;Grande Synthe;;;;59;;;Des Etoiles Plein les Yeux;des-etoiles-plein-les-yeux;51.01354700;2.30257700;False;True;False;False;False;True
223_PART;Romainville;PART;20;Mac;0;          ;0;08:00;19:00;160 rue de la République;93230;Romainville;;;;;;;Rire et Découvrir;groupe-rire-et-decouvrir;48.87933770;2.43278060;True;False;False;False;False;True
228_PART;Mont Saint Aignan;PART;10;Micro-crèche;0;          ;0;08:00;18:30;1 place des Coquets;76130;Mont Saint Aignan;;;;;;;Happy Zou ;prismes-happy-zou-normandie;49.46204030;1.08132990;False;True;True;True;False;True
236;CARRIERES SUR SEINE LES DIABLOTINS (DSP);DSP;55;MAC;55;01/04/2015;0;07:45;18:45;23 avenue du Maréchal Juin;78420;CARRIERES-SUR-SEINE;01 55 90 44 57;carrieres.seine@lpcr.fr;LPCR CARRIERES SUR SEINE;78;;802895441;;;48.912082;2.178049299999998;True;True;True;True;False;False
237_PART;Lavoisier;PART;10;Micro-crèche;0;          ;0;08:00;18:30;20 rue Lavoisier;95000;Pontoise;;;;;;;Happy Zou ;happy-zou-paris;49.04302930;2.08050690;False;True;False;True;False;True
24;PARIS 9 VICTOIRE;CEP;30;MAC;30;21/04/2008;0;07:30;19:30;63 rue Taitbout;75009;PARIS;01 41 05 58 70;paris.victoire@lpcr.fr;LPCR GROUPE;75;;528570229;;les-petits-chaperons-rouges;48.87591159999999;2.334961900000053;True;True;True;True;False;True
240;LES MALICIEUX DE SAINT EMILION;CEP;10;MIC;10;31/08/2015;0;08:30;19:00;39 rue Gabriel Lamé;75012;PARIS;01 70 08 16 94;paris.saintemilion@crechesetmalices.com;LPCR GROUPE;75;;528570229;;creches-et-malices;48.8347243;2.385869800000023;True;True;True;True;False;True
242;LES MALICIEUX DE TOLOZAN;CEP;10;MIC;10;21/05/2015;0;07:30;19:00;18 place Tolozan;69001;LYON;04 27 18 00 55;lyon.tolozan@crechesetmalices.com;LPCR GROUPE;69;;528570229;;creches-et-malices;45.7697492;4.837590299999988;True;True;True;True;False;True
244_PART;Lomme;PART;10;Micro-crèche;0;          ;0;08:00;18:30;52 rue Neuve;59160;Lomme;;;;;;;Happy Zou ;happy-zou-reims;50.63877140;3.01549520;False;True;False;True;False;True
249;PUTEAUX LES OURSONS (DSP);DSP;60;MAC;60;01/09/2015;0;07:30;18:30;36 rue Charles Lorilleux;92800;PUTEAUX;01 74 70 05 49;puteaux.oursons@lpcr.fr;LPCR DSP PUTEAUX LES OURSONS;92;;812720738;;;48.88622650000001;2.234392699999944;True;True;True;True;False;False
256;METZ;CEP;18;MAC;18;11/01/2016;0;07:30;18:30;RUE SENTE AMY;57000;METZ;03 54 60 01 08;metz@lpcr.fr;LPCR GRAND EST;57;;533474094;;les-petits-chaperons-rouges;49.09944040000001;6.177866600000016;True;True;True;True;False;True
257;LES MALICIEUX DES FRERES;CEP;10;MIC;10;11/01/2016;0;07:30;19:00;29 rue des Frères;57100;THIONVILLE;03 54 41 00 00;thionville@crechesetmalices.com;LPCR GROUPE;57;;528570229;;creches-et-malices;49.34863740000001;6.155347500000062;True;True;True;True;False;True
259_PART;Paris 14;PART;42;Mac;0;          ;0;07:30;19:00;34 avenue Reille;75014;Paris;;;;;;;Kids Cool;kids-cool;48.82467530;2.33912050;True;True;True;True;False;True
263;LES MALICIEUX DE PICHAURY;CEP;10;MIC;10;07/03/2016;0;08:30;18:30;1030 rue  Guillibert G. de la Lauzière;13100;AIX EN PROVENCE;04 13 57 17 69;aix.pichaury@crechesetmalices.com;LPCR GROUPE;13;;528570229;;creches-et-malices;43.4795424;5.367934999999989;True;True;True;True;False;True
27;NIMES;DGP;60;MAC;60;15/09/2008;0;06:30;20:30;440 rue Yves Sigal;30000;NIMES;09 52 05 16 35;nimes@lpcr.fr;LPCR GROUPE;30;;528570229;;;43.8152723;4.355254599999967;True;True;True;True;False;False
271_PART;Coquelicot;PART;24;Mac;0;          ;0;08:00;19:30;13 rue du Louvain;92400;Courbevoie;;;;92;;;Kids'Up;kids-up;48.90336020;2.26435410;True;True;True;True;False;True
275_PART;Réglisse;PART;26;Mac;0;          ;0;07:30;19:00;16 avenue de la Demi Lune;95700;Roissy en France;;;;95;;;Kids'Up;kids-up;49.00621070;2.49268280;True;True;True;True;False;True
276;MONTATAIRE;CEP;0;MAC;31;12/09/2016;0;07:30;18:30;Les marches de l'Oise - 100 rue Louis Blanc;60160;MONTATAIRE;03 60 80 01 60;montataire@lpcr.fr;LPCR GROUPE;60;;528570229;;les-petits-chaperons-rouges;49.25980240000001;2.4547211999999945;True;True;True;True;False;True
279;MONTIGNY LES PITCHOUNES (DSP);DSP;30;MAC;30;01/04/2016;0;07:30;18:30;rue Hrastnik;62640;MONTIGNY-EN-GOHELLE;03 21 76 46 66;montigny.gohelle@lpcr.fr;LPCR COLLECTIVITES PUBLIQUES;62;;494149990;;;50.429;2.925375000000031;True;True;True;True;False;False
283_PART;Les Roseaux;PART;45;Mac;0;          ;0;07:30;19:30;7 rue Casimir Périer;69002;Lyon;;;;69;;;La Mutualite Française du Rhône;;45.74359790;4.81907600;False;False;False;False;True;False
204;LES MALICIEUX DE LA TOUR;CEP;10;MIC;10;25/11/2013;0;08:30;19:00;127 rue de la Tour;75016;PARIS;01 80 49 25 10;paris.tour@crechesetmalices.com;LPCR GROUPE;75;;528570229;;creches-et-malices;48.8633757;2.2741968999999926;True;True;True;True;False;True
205;LES MALICIEUX DE NICOLO;CEP;10;MIC;10;06/01/2014;0;08:30;19:00;22 rue Nicolo / 4 rue Paul Sauniere;75016;PARIS;01 80 49 25 11;paris.nicolo@crechesetmalices.com;LPCR GROUPE;75;;528570229;;creches-et-malices;48.8592425;2.279807500000061;True;True;True;True;False;True
205_PART;Un Petit Navire;PART;10;Micro-crèche;0;          ;0;07:30;18:30;Rue André Joseph Leglay;59151;Arleux;;;;59;;;Des Etoiles Plein les Yeux;des-etoiles-plein-les-yeux;50.28303260;3.11648700;False;True;False;False;False;True
211;LES MALICIEUX DE FAIDHERBE;CEP;10;MIC;10;01/09/2014;0;08:00;19:00;5 Rue Sainte-Anne;59000;LILLE;09 82 45 84 84;lille.faidherbe@crechesetmalices.com;LPCR GROUPE;59;;528570229;;creches-et-malices;50.6358352;3.068782400000032;True;True;True;True;False;True
212;PARIS 15 VOUILLE;CEP;18;MAC;18;01/09/2014;0;08:30;19:00;14 rue Vouillé;75015;PARIS;01 80 49 54 14;paris.vouille@lpcr.fr;LPCR GROUPE;75;;528570229;;les-petits-chaperons-rouges;48.8344738;2.303426599999966;True;True;True;True;False;True
215_PART;Pirouette Cacahuete;PART;38;Mac;0;          ;0;06:00;21:00;Rue Gabriel Faure;59500;Douai;;;;59;;;Des Etoiles Plein les Yeux;des-etoiles-plein-les-yeux;50.37816100;3.09403900;True;True;False;False;False;True
219_PART;Le Cocon de Lili le Papillon;PART;30;Mac;0;          ;0;07:00;19:00;70 rue de Madrid;62320;Douvrin;;;;62;;;Des Etoiles Plein les Yeux;des-etoiles-plein-les-yeux;50.51131170;2.84525070;False;True;False;False;False;True
22;MONTROUGE GAMBETTA;CEP;47;MAC;47;07/04/2008;0;07:30;18:30;19/25 avenue Gambetta;92120;MONTROUGE;01 55 90 44 48;montrouge@lpcr.fr;LPCR GROUPE;92;;528570229;;les-petits-chaperons-rouges;48.8138172;2.323197100000016;True;True;True;True;False;True
221;LES MALICIEUX DE CHARONNE;CEP;10;MIC;10;01/03/2015;0;08:30;19:00;50 rue de Charonne;75011;PARIS;01 80 49 24 50;paris.charonne@crechesetmalices.com;LPCR GROUPE;75;;528570229;;creches-et-malices;48.8530027;2.377582200000006;True;True;True;True;False;True
223;LES MALICIEUX DU ROY D'ESPAGNE;CEP;10;MIC;10;31/08/2015;0;08:00;18:30;4 rue du capitaine Jean Croisa;13009;MARSEILLE;04 13 42 00 66;marseille.espagne@crechesetmalices.com;LPCR GROUPE;13;;528570229;;creches-et-malices;43.23501450000001;5.399960100000044;True;True;True;True;False;True
226;LES MALICIEUX DE ST BARNABE;CEP;10;MIC;10;22/04/2013;0;08:00;18:30;47 RUE MONTAIGNE;13012;MARSEILLE;09 83 54 97 67;marseille.barnabe@crechesetmalices.com;LPCR GROUPE;13;;528570229;;creches-et-malices;43.3043611;5.416136400000028;True;True;True;True;False;True
230;ONNAING;CEP;31;MAC;31;05/09/2016;0;07:30;18:30;8 rue de la Mairie;59264;ONNAING;03 61 10 13 57;onnaing@lpcr.fr;LPCR GROUPE;59;;528570229;;les-petits-chaperons-rouges;50.38594449999999;3.600376399999959;True;True;True;True;False;True
233;BORDEAUX DR CHRISTIANE LARRALDE (DSP);DSP;60;MAC;60;01/06/2015;0;07:30;19:00;20 rue Albert Thomas;33000;BORDEAUX;09 52 86 83 46;bordeaux.thomas@lpcr.fr;LPCR COLLECTIVITES PUBLIQUES;33;;494149990;;;44.8289781;-0.5970154999999977;True;True;True;True;False;False
233_PART;Cité Champagne;PART;10;Micro-crèche;0;          ;0;08:00;18:30;12 Cité Champagne;75020;Paris;;;;;;;Happy Zou ;happy-zou-paris;48.85361750;2.40456670;False;True;False;True;False;True
240_PART;Gueux;PART;10;Micro-crèche;0;          ;0;08:00;18:30;16 rue du Moutier;51390;Gueux;;;;;;;Happy Zou ;happy-zou-reims;49.24877040;3.91405950;False;True;False;True;False;True
243_PART;Lille;PART;10;Micro-crèche;0;          ;0;08:00;18:30;10 rue des Canoniers;59000;Lille;;;;;;;Happy Zou ;happy-zou-reims;50.63942870;3.06995410;False;True;False;True;False;True
245;SAINT PRIEST;CEP;21;MAC;26;11/01/2016;0;07:30;19:00;1 rue Buster Keaton;69800;SAINT PRIEST;04 27 18 00 27;saint.priest@lpcr.fr;LPCR GROUPE;69;;528570229;;les-petits-chaperons-rouges;45.7093678;4.916552799999977;True;True;True;True;False;True
248;GUYANCOURT;CEP;14;MAC;26;11/01/2016;0;07:30;19:00;1 bis avenue du 8 mai 1945;78280;GUYANCOURT;01 76 78 32 26;guyancourt@lpcr.fr;LPCR GROUPE;78;;528570229;;les-petits-chaperons-rouges;48.78634549999999;2.051653100000067;True;True;True;True;False;True
250_PART;Poissy;PART;45;Mac;0;          ;0;06:30;19:30;22 rue Meissonnier;78300;Poissy;;;;;;;IEPC;;48.92987100;2.03698300;False;True;True;True;True;False
26;THIVERVAL;CEP;45;MAC;45;01/09/2008;0;07:45;18:45;RD 119 Parc de Folleville;78850;THIVERVAL;09 51 90 47 98;thiverval@lpcr.fr;LPCR GROUPE;78;;528570229;;les-petits-chaperons-rouges;48.84839469999999;1.9094135999999935;True;True;True;True;False;True
260_PART;Paris 15;PART;10;Micro-crèche;0;          ;0;08:00;19:00;3 rue Rosenwald;75015;Paris;;;;;;;Kids Cool;kids-cool;48.83350200;2.30608140;False;True;True;True;False;True
263_PART;Montrouge;PART;20;Mac;0;          ;0;07:30;19:00;93 avenue Aristide Briand;92120;Montrouge;;;;;;;Kids Cool;kids-cool;48.81454010;2.32590860;True;True;True;True;False;True
265_PART;Michelet;PART;40;Mac;0;          ;3;07:45;19:00;24 avenue Michelet;94100;Saint Maur des fossés;;;;;;;Kids Cool;kids-cool;48.7920945;2.50918200000001;True;True;True;True;False;True
266;BIO CRECHE CONVENTION;CEP;36;MAC;36;20/09/2013;0;07:30;19:00;159 RUE BLOMET;75015;PARIS;01 74 03 11 32;paris.blomet@biocreche.com;BIO CRECHE CONVENTION;75;;793790445;;bio-creche;48.83752430000001;2.294627300000002;True;True;True;True;False;True
268;BIO CRECHE ROMAINVILLE;CEP;44;MAC;0;02/09/2013;0;07:30;19:00;13-17 ALLEE DU BELVEDERE;93230;ROMAINVILLE;01 74 73 30 96;romainville@biocreche.com;BIO CRECHE ROMAINVILLE;93;;791 861 750;;bio-creche;48.88015120000001;2.410078399999975;True;True;True;True;False;True
269;LME CANAILLES;CEP;10;MIC;10;29/10/2015;0;07:30;19:00;74 rue Jules Guesdes;92300;LEVALLOIS;01 74 70 05 54;levallois.guesde@crechesetmalices.com;LA MAISON DE L'EVEIL;92;;792 631 608;;creches-et-malices;48.894665;2.291818400000011;True;True;True;True;False;True
194_PART;Pernety;PART;10;Micro-crèche;0;          ;0;08:00;19:00;47 rue Bénard;75014;Paris;;;;49;;;Crèches Expansion;creches-expansion;48.83181640;2.32064420;False;True;True;True;False;True
195_PART;Catulle Mendes;PART;10;Micro-crèche;0;          ;0;07:30;18:30;8 rue Catulle Mendès;75017;Paris;;;;49;;;Crèches Expansion;creches-expansion;48.88683970;2.29130510;False;True;True;True;False;True
197;LES MALICIEUX DE WASQUEHAL;CEP;10;MIC;10;08/04/2013;0;08:00;19:00;47 avenue de Flandre;59290;WASQUEHAL;03 59 09 07 77;wasquehal@crechesetmalices.com;LPCR GROUPE;59;;528570229;;creches-et-malices;50.66444730000001;3.1232833000000255;True;True;True;True;False;True
2;CLICHY VEGA;CEP;66;MAC;66;02/11/2005;0;07:30;19:00;6 allée Jean Prouvé;92110;CLICHY;01 74 70 05 55;clichy@lpcr.fr;LPCR GROUPE;92;;528570229;;les-petits-chaperons-rouges;48.9064162;2.3182879999999386;True;True;True;True;False;True
201;LES MALICIEUX DE CONTE;CEP;10;MIC;10;27/05/2013;0;08:30;19:00;3 rue de Conté;75003;PARIS;01 42 74 69 10;paris.conte@crechesetmalices.com;LPCR GROUPE;75;;528570229;;creches-et-malices;48.8658489;2.3562819999999647;True;True;True;True;False;True
202_PART;Le Petit Bois Charmant de Nathan;PART;30;Mac;0;          ;0;07:00;19:00;977 rue Eugène Avinée;59120;Loos;;;;94;;;Des Etoiles Plein les Yeux;des-etoiles-plein-les-yeux;50.60329400;3.03751400;True;True;False;False;False;True
210;LES MALICIEUX DE PONSON;CEP;10;MIC;10;19/05/2014;0;08:00;18:30;46 rue Raphael Ponson;13008;MARSEILLE;09 81 30 79 98;marseille.ponson@crechesetmalices.com;LPCR GROUPE;13;;528570229;;creches-et-malices;43.26604;5.388011000000006;True;True;True;True;False;True
210_PART;Pomme de Reinette;PART;38;Mac;0;          ;0;07:00;19:00;Rue Charles Flon;59310;Orchies;;;;59;;;Des Etoiles Plein les Yeux;des-etoiles-plein-les-yeux;50.46607900;3.26007970;True;True;False;False;False;True
212_PART;Le Nid de Sidonie;PART;25;Mac;0;          ;0;07:00;19:00;Parc d'activité de la Croix Rouge;59380;Socx;;;;59;;;Des Etoiles Plein les Yeux;des-etoiles-plein-les-yeux;50.95376100;2.43184700;False;True;False;False;False;True
215;LES MALICIEUX D'AGATHE;CEP;10;MIC;10;29/09/2014;0;08:30;19:00;1 rue Agathe;92800;PUTEAUX;01 78 14 35 80;puteaux@crechesetmalices.com;LPCR GROUPE;92;;528570229;;creches-et-malices;48.87819429999999;2.2400860000000193;True;True;True;True;False;True
217_PART;Le Petit Bolide de Camille;PART;38;Mac;0;          ;0;05:30;20:00;101 rue de Neuf Mesnil;59750;Feignies;;;;59;;;Des Etoiles Plein les Yeux;des-etoiles-plein-les-yeux;50.27615820;3.90810910;False;True;False;False;False;True
219;LES MALICIEUX DE MONTROSIER;CEP;10;MIC;10;01/01/2015;0;08:30;19:00;26 rue Montrosier;92200;NEUILLY;01 42 22 91 26;neuilly@crechesetmalices.com;LPCR GROUPE;92;;528570229;;creches-et-malices;48.8809808;2.2798903999999993;True;True;True;True;False;True
220_PART;Zébulon le Petit Chaton;PART;38;Mac;0;          ;0;07:00;19:00;Rue Alfred Nobel;62880;Vendin le Vieil;;;;62;;;Des Etoiles Plein les Yeux;des-etoiles-plein-les-yeux;50.45881600;2.83888950;False;True;False;False;False;True
225;PARIS 8 BUCAREST;CEP;47;MAC;47;23/09/2013;0;08:30;19:00;7/13 rue Bucarest;75008;PARIS;01 70 08 19 62;paris.bucarest@lpcr.fr;LPCR GROUPE;75;;528570229;;les-petits-chaperons-rouges;48.880509;2.326114999999959;True;True;True;True;False;True
229_PART;Petit Quevilly;PART;10;Micro-crèche;0;          ;0;08:00;18:30;78 avenue Jean Jaurès;76498;Petit Quevilly;;;;;;;Happy Zou ;prismes-happy-zou-normandie;49.42698260;1.06492580;False;True;True;True;False;True
231_PART;Blomet;PART;10;Micro-crèche;0;          ;0;08:00;18:30;37 rue Blomet;75015;Paris;;;;;;;Happy Zou ;happy-zou-paris;48.84211550;2.30626970;False;True;False;True;False;True
232;COLOMBES LES ALOUETTES;DSP;60;MAC;60;01/04/2015;0;07:30;19:00;ZAC de l'île Marante - 7 rue de Frankenthal;92700;COLOMBES;01 55 90 44 56;colombes.europe@lpcr.fr;LPCR COLLECTIVITES PUBLIQUES;92;;494149990;;;48.9254913;2.2395688999999948;True;True;True;True;False;False
232_PART;Javel;PART;10;Micro-crèche;0;          ;0;08:00;18:30;56 rue Javel;75015;Paris;;;;;;;Happy Zou ;happy-zou-paris;48.84516260;2.28244210;False;True;False;True;False;True
234;MERIGNAC BELL;CEP;31;MAC;31;31/08/2015;0;07:45;18:45;Domaine de Pelus - 4 rue Graham Bell - hall droite;33700;MERIGNAC;05 24 44 00 86;merignac.bell@lpcr.fr;LPCR GROUPE;33;;528570229;;les-petits-chaperons-rouges;44.8298843;-0.6847638000000416;True;True;True;True;False;True
241;VITRY SUR SEINE;CEP;10;MIC;10;01/09/2015;0;07:30;19:00;bâtiment C-106/108, avenue Anatole France;94400;VITRY SUR SEINE;01 74 02 00 47;vitry.seine@lpcr.fr;LPCR GROUPE;94;;528570229;;les-petits-chaperons-rouges;48.8078953;2.404980099999989;True;True;True;True;False;True
245_PART;Calais;PART;10;Micro-crèche;0;          ;0;08:00;18:30;22 rue Desaix;62193;Calais;;;;;;;Happy Zou ;happy-zou-reims;50.94288900;1.84264090;False;True;False;True;False;True
251_PART;Antony;PART;30;Mac;0;          ;0;06:30;19:30;6 square des Alpes;92160;Antony;;;;;;;IEPC;;48.73704240;2.28749090;False;True;True;True;True;False
253_PART;Aubervilliers;PART;50;Mac;0;          ;0;06:30;19:30;8 rue Paul Bert;93300;Aubervilliers;;;;;;;IEPC;;48.90893090;2.38955270;False;True;True;True;True;False
254_PART;Argenteuil 1;PART;25;Mac;0;          ;0;06:30;19:30;123 rue des Carrières;95100;Argenteuil;;;;;;;IEPC;;48.95733360;2.28830400;False;True;True;True;True;False
255;OBERNAI;CEP;25;MAC;36;01/04/2016;0;07:30;18:30;LE GALION - 1 rue de Pully;67210;OBERNAI;03 68 00 00 09;obernai@lpcr.fr;LPCR GRAND EST;67;;533474094;;les-petits-chaperons-rouges;48.46226;7.481679999999983;True;True;True;True;False;True
255_PART;Argenteuil 2;PART;38;Mac;0;          ;0;06:30;19:30;7 rue de l'Abbé Fleury;95100;Argenteuil;;;;;;;IEPC;;48.94410280;2.24681970;False;True;True;True;True;False
261;AUBERVILLIERS;CEP;16;MAC;16;02/05/2016;0;08:00;19:00;Parc des Portes de Paris 45 Avenue Victor Hugo - Batiment 264;93300;AUBERVILLIERS;01 74 73 32 69;aubervilliers@lpcr.fr;LPCR GROUPE;93;;528570229;;les-petits-chaperons-rouges;48.9021181;2.369501200000059;True;True;True;True;False;True
264;BLOTZHEIM;CEP;0;MAC;24;19/09/2016;0;07:30;18:30;18 rue de l'Artisanat Porte B;68 730;BLOTZHEIM;03 68 08 00 73;blotzheim@lpcr.fr;LPCR GRAND EST;68;;533474094;;les-petits-chaperons-rouges;47.6050215;7.505684900000006;True;True;True;True;False;True
266_PART;Caffin;PART;14;Mac;0;          ;0;07:45;19:00;56 avenue Caffin;94100;Saint Maur des fossés;;;;94;;;Kids Cool;kids-cool;48.79223880;2.50625020;True;True;True;True;False;True
270;LME CHENAPANS;CEP;0;MIC;0;29/10/2015;0;07:30;19:00;49 rue Jean Pierre TIMBAUD;92400;COURBEVOIE;01 74 70 05 50;courbevoie.timbaud@crechesetmalices.com;LA MAISON DE L'EVEIL;92;;792 631 608;;creches-et-malices;48.8986469;2.2521348000000216;True;True;True;True;False;True
274;DIJON;CEP;36;MAC;36;05/09/2016;0;07:30;19:00;17 rue du 26ème Dragons;21000;DIJON;03 45 60 01 70;dijon@lpcr.fr;LPCR GROUPE;21;;528570229;;les-petits-chaperons-rouges;47.3323263;5.048173700000007;True;True;True;True;False;True
276_PART;Les Bambins d'Héloïse ;PART;10;Micro-crèche;0;          ;0;08:00;18:30;2 boulevard Jean XXIII;44000;Nantes;;;;;;;La Cabane des Bambins;lcb-ouest;47.22986760;-1.57250800;False;True;True;True;False;True
277;LES MALICIEUX DU GAL LECLERC;CEP;10;MIC;10;15/03/2016;0;07:30;19:00;157 Avenue du Général Leclerc;78220;VIROFLAY;01 74 70 05 69;viroflay@crechesetmalices.com;LPCR GROUPE;78;;528570229;;creches-et-malices;48.80134049999999;2.163442199999963;True;True;True;True;False;True
283;LES MALICIEUX DE COUTUREAU;-;10;MIC;10;01/01/2017;0;08:30;19:00;10 rue Alexandre Coutureau et 9 rue Armengaud;92210;SAINT CLOUD;;stcloud.coutureau@crechesetmalices.com;LPCR GROUPE;92;;528570229;;;48.8464661;2.2156323000000384;True;True;True;True;False;False
286;LES MALICIEUX DE TINTORET;CEP;10;MIC;10;29/08/2016;0;08:30;19:00;16 avenue Faidherbe et 34-36 rue Tintoret;92600;ASNIERES;01 78 14 35 70;asnieres.tintoret@crechesetmalices.com;LPCR GROUPE;92;;528570229;;creches-et-malices;48.9076382;2.266978999999992;True;True;True;True;False;True
286_PART;Myrtille Vitton;PART;30;Mac;0;          ;0;07:30;19:30;40 bis cour Richard Vitton;69003;Lyon;;;;69;;;La Mutualite Française du Rhône;;45.75367810;4.88949420;False;False;False;False;True;False
287;LYON BON LAIT;CEP;21;MAC;21;05/09/2016;0;07:30;19:00;12 rue Simone de Beauvoir;69007;LYON;04 27 18 26 40;lyon.bonlait@lpcr.fr;LPCR GROUPE;69;;528570229;;les-petits-chaperons-rouges;45.7356;4.833622200000036;True;True;True;True;False;True
287_PART;EAJE Grain d'Orge;PART;52;Mac;0;          ;0;07:30;19:30;134 grande rue de la Guillotière;69007;Lyon;;;;69;;;La Mutualite Française du Rhône;;45.74904660;4.85048740;False;False;False;False;True;False
295;NIMES 2;-;0;-;0;05/11/2016;0;07:30;19:00;115 route d'Uzes;30000;NIMES;;nimes2@lpcr.fr;LPCR GROUPE;30;;528570229;;;43.8544385;4.379408900000044;True;True;True;True;False;False
307;LES MALICIEUX DE LA CONCORDE;;0;;0;01/09/2017;0;;;Quai de la Concorde;59240;DUNKERQUE;;dunkerque.concorde@crechesetmalices.com;LPCR GROUPE;59;;528570229;;;51.0302248;2.3761167000000114;True;True;True;True;False;False
310;YERRES LA DORLOTTE (DSP);DSP;40;MAC;40;01/09/2016;0;07:30;19:00;17 rue de Mendig;91330;YERRES;01 78 18 01 40;yerres.dorlotte@lpcr.fr;LPCR DSP YERRES La Dorlotte;91;;822 044 475;;;48.7103741;2.480380299999979;True;True;True;True;False;False
312;LES MALICIEUX D'ALAÏ;CEP;10;MIC;10;01/08/2016;0;07:00;19:30;186 avenue Charles de Gaulle;69160;TASSIN LA DEMI LUNE;04 28 67 98 12;tassindemilune.alai@crechesetmalices.com;LPCR GROUPE;69;;528570229;;creches-et-malices;45.7535399;4.768033100000025;True;True;True;True;False;True
318_PART;La Voie Lactée;PART;40;Mac;0;          ;0;07:30;19:30;18 rue Louis Blériot;38590;Saint Etienne de Saint Geoirs;;;;;;;Léa et Léo ;lea-et-leo-groupe;45.35727730;5.33618520;True;True;True;False;False;True
321;LABEGE;;0;;0;01/01/2017;0;;;161 rue Ampère - Site INNOPOLE;31670;LABEGE;;labege@lpcr.fr;LPCR LABEGE;31;;823022918;;;43.54806600000001;1.5052467000000433;True;True;True;True;False;False
321_PART;Jaune Citron;PART;36;Mac;0;          ;0;07:30;19:30;71 rue Jean Zay;69800;Saint Priest;;;;;;;Léa et Léo ;lea-et-leo-groupe;45.71115980;4.90404780;True;True;True;False;False;True
322;LES MALICIEUX DE SAINT JACQUES;;0;;0;09/01/2017;0;;;25 rue Saint Jacques;59000;LILLE;;lille.stjacques@crechesetmalices.com;LPCR GROUPE;59;;528570229;;;50.6408973;3.0669384000000264;True;True;True;True;False;False
333_PART;Champigny;PART;45;Mac;0;          ;0;08:00;19:00;3 rue Edouard Vaillant;94500;Champigny sur Marne;;;;;;;Les Petites Canailles;les-petites-canailles;48.81519180;2.50494160;True;True;True;True;False;True
34;PERPIGNAN;CEP;31;MAC;31;26/01/2009;0;07:30;19:00;453 rue Alphonse Beau de Rochas;66000;PERPIGNAN;04 37 46 45 47;perpignan@lpcr.fr;LPCR GROUPE;66;;528570229;;les-petits-chaperons-rouges;42.7334652;2.8926183999999466;True;True;True;True;False;True
342_PART;Sésame;PART;40;Mac;0;          ;0;08:30;18:30;112 boulevard d'Armentières;59100;Roubaix;;;;59;;;Rigolo Comme la Vie;rigolo-comme-la-vie;50.70047830;3.16220880;True;True;True;True;False;True
363_PART;Beauchamp;PART;10;Micro-crèche;0;          ;0;08:00;18:30;9 avenue Morere;95250;Beauchamp;;;;;;;Les Bébés Choyés;les-bebes-choyes;49.01450860;2.18776970;True;False;False;False;False;True
370_PART;Montigny le Bretonneux;PART;7;Micro-crèche;0;          ;0;08:00;18:30;2 mail des Tilleuls;78180;Montigny le Bretonneux;;;;;;;L'Abeille et le Papillon;l-abeille-et-le-papillon;48.78830170;2.04065660;False;True;False;False;False;True
375_PART;Albi;PART;32;Mac;0;          ;0;07:45;18:30;3 rue Marcelin;81000;Albi;;;;;;;L'Oiseau Bariolé;l-oiseau-bariole;43.92544200;2.13799100;True;True;False;True;False;True
378_PART;Mantes la Ville;PART;10;Micro-crèche;0;          ;0;07:30;18:00;5 rue des Merisiers;78711;Mantes la Ville;;;;;;;La Ronde des Doudous;la-ronde-des-doudous;48.97638780;1.70992000;True;True;True;True;False;True
252;LES MALICIEUX DE NATIONALE 2;CEP;10;MIC;10;31/08/2015;0;07:30;19:00;208 RUE NATIONALE;59000;LILLE;03 59 09 06 70;lille.nationale2@crechesetmalices.com;LPCR GROUPE;59;;528570229;;creches-et-malices;50.631663;3.050231599999961;True;True;True;True;False;True
253;BLAGNAC LES ECUREUILS (DSP);DSP;50;MAC;66;04/01/2016;0;07:30;19:00;23 Chemin de Bélisaire;31700;BLAGNAC;05 31 08 00 09;blagnac@lpcr.fr;LPCR COLLECTIVITES PUBLIQUES;31;;494149990;;;43.6318488;1.3858585000000403;True;True;True;True;False;False
256_PART;Garges les Gonesse;PART;60;Mac;0;          ;0;06:30;19:30;10 bis rue Victor Hugo;95140;Garges les Gonesse;;;;;;;IEPC;;48.9722334;2.388602999999989;False;True;True;True;True;False
258_PART;Paris 4;PART;22;Mac;0;          ;0;07:30;19:00;10 quai Henri IV;75004;Paris;;;;;;;Kids Cool;kids-cool;48.84810910;2.36393210;True;True;True;True;False;True
264_PART;Fontenay sous Bois;PART;20;Mac;0;          ;0;07:30;19:00;1 avenue du Maréchal de Lattre de Tassigny;94120;Fontenay sous Bois;;;;;;;Kids Cool;kids-cool;48.85207420;2.49388830;True;True;True;True;False;True
265;BIO CRECHE REPUBLIQUE;CEP;0;MAC;50;18/07/2012;0;07:30;19:00;17-21 RUE DU MOULIN JOLY;75011;PARIS;01 76 78 32 27;paris.moulinjoly@biocreche.com;BIO CRECHE REPUBLIQUE;75;;533 786 158;;bio-creche;48.869571;2.378281099999981;True;True;True;True;False;True
267;BIO CRECHE NYMPHEAS;CEP;20;MAC;0;15/09/2010;0;07:30;19:00;5 RUE DE LA JUSTICE;75020;PARIS;01 70 08 17 52;paris.justice@biocreche.com;BIO CRECHE NYMPHEAS;75;;520 675 752;;bio-creche;48.86976819999999;2.40715160000002;True;True;True;True;False;True
270_PART;Brunelle;PART;25;Mac;0;          ;0;08:00;19:30;32 rue de Bellevue;92100;Boulogne Billancourt;;;;92;;;Kids'Up;kids-up;48.83796850;2.22979190;False;True;True;True;False;True
274_PART;Ambroisine;PART;10;Micro-crèche;0;          ;0;08:00;19:00;77 avenue Aristide Briand;94110;Arcueil;;;;94;;;Kids'Up;kids-up;48.80530530;2.32550000;False;True;True;True;False;True
277_PART;Les Bambins de Talensac;PART;10;Micro-crèche;0;          ;0;08:00;18:30;5 rue Jeanne d'Arc;44000;Nantes;;;;44;;;La Cabane des Bambins;lcb-ouest;47.22081170;-1.55656810;False;True;True;True;False;True
278_PART;La Cabane des Bambins;PART;10;Micro-crèche;0;          ;0;08:30;19:00;47 rue Hallé;75014;Paris;;;;75;;;La Cabane des Bambins;la-cabane-des-bambins;48.83026260;2.33118570;False;True;True;True;False;True
288;LES MALICIEUX D'ALPESPACE;CEP;10;MIC;10;14/11/2016;0;07:30;19:00;Bâtiment MALAKU Alpespace Za Grand Ile Voie Saint Exupéry;73800;FRANCIN;;francin@crechesetmalices.com;LPCR GROUPE;73;;528570229;;creches-et-malices;45.48077800000001;6.034955999999966;True;True;True;True;False;True
302;VILLENEUVE LE COMTE;;0;;0;01/07/2017;0;;;Promenade du Lac -Bloc C;77174;VILLENEUVE LE COMTE;;;LPCR GROUPE;77;;528570229;;;48.86037899999999;2.7390420000000404;True;True;True;True;False;False
306;DUNKERQUE;;0;;0;02/01/2017;0;;;524 Avenue Louis HERBAUX;59240;DUNKERQUE;;dunkerque@lpcr.fr;LPCR GROUPE;59;;528570229;;;51.0415508;2.3942303999999694;True;True;True;True;False;False
309;SAINT AIGNAN GRANDLIEU;;0;;0;01/01/2017;0;;;6 Rue René Fonck;44860;SAINT-AIGNAN-GRANDLIEU;;aignan.grandlieu@lpcr.fr;LPCR GROUPE;44;;528570229;;;47.1531272;-1.5925366000000167;True;True;True;True;False;False
315;SAINT VICTORET - LES P'TITS LOUPS (DSP);DSP;20;MAC;20;01/09/2016;0;07:30;18:30;38 rue Boris Vian;13730;SAINT VICTORET;04 42 79 03 99;saint.victoret@lpcr.fr;LPCR SAINT VICTORET;13;;817 876 246;;;43.4133903;5.235575299999937;True;True;True;True;False;False
316_PART;Les P'tits Pots Rouges;PART;60;Mac;0;          ;0;07:30;19:30;Chemin de Mondeville ;14460;Colombelle;;;;;;;Léa et Léo ;lea-et-leo-groupe;49.18478100;-0.30557700;True;True;True;False;False;True
319;LES MALICIEUX DE MAZARINE;;0;;0;09/01/2017;0;;;20 avenue Louis Amouriq Résidence La Mazarine;13290;AIX LES MILLES;;aix.mazarine@crechesetmalices.com;LPCR GROUPE;13;;528570229;;;43.5023437;5.385586500000045;True;True;True;True;False;False
32;SIGNES;CEP;40;MAC;40;12/01/2009;0;07:30;18:30;Parc d'activites du Plateau de Signes - 437 Avenue de Paris - BP 745 Signes;83030;TOULON Cedex 9;04 37 46 45 48;signes@lpcr.fr;LPCR GROUPE;83;;528570229;;les-petits-chaperons-rouges;43.1304086;5.909669500000064;True;True;True;True;False;True
322_PART;Les Petits Princes;PART;25;Mac;0;          ;0;07:30;19:30;Rue des Chà¢taigniers;74500;Publier;;;;;;;Léa et Léo ;lea-et-leo-groupe;46.38663270;6.54113750;True;True;True;False;False;True
330_PART;Orteaux;PART;10;Micro-crèche;0;          ;0;08:00;19:00;69 rue des Orteaux;75020;Paris;;;;;;;Les Petites Canailles;les-petites-canailles;48.85636760;2.40436390;False;True;True;True;False;True
331_PART;Saint Mandé;PART;60;Mac;0;          ;0;08:00;19:00;6 rue Poirier;94160;Saint Mandé;;;;;;;Les Petites Canailles;les-petites-canailles;48.84484780;2.41846270;True;True;True;True;False;True
341_PART;Noémi;PART;25;Mac;0;          ;0;08:00;19:00;1 rue Pascal;59100;Roubaix;;;;59;;;Rigolo Comme la Vie;rigolo-comme-la-vie;50.68431800;3.17577020;True;True;True;True;False;True
344_PART;Carpeaux;PART;16;Mac;0;          ;0;08:00;18:30;31 rue Carpeaux;59100;Roubaix;;;;59;;;Rigolo Comme la Vie;rigolo-comme-la-vie;50.67679640;3.18517730;True;True;True;True;False;True
345_PART;Rue Neuve;PART;20;Mac;0;          ;0;08:00;19:00;42 rue Neuve;59100;Roubaix;;;;59;;;Rigolo Comme la Vie;rigolo-comme-la-vie;50.69050420;3.17231160;True;True;True;True;False;True
35;VITROLLES GRIFFON;CEP;32;MAC;32;14/04/2009;0;07:45;18:45;1003 route de la Seds;13127;VITROLLES;04 37 46 45 31;vitrolles@lpcr.fr;LPCR GROUPE;13;;528570229;;les-petits-chaperons-rouges;43.4328453;5.277727099999993;True;True;True;True;False;True
355_PART;Piccolino;PART;10;Micro-crèche;0;          ;0;07:30;19:30;7 rue des Cleux;35890;Bourg des Comptes;;;;35;;;Tee Conseil et Gestion;tee-conseil-et-gestion-piccolino;47.92940160;-1.73665420;True;True;True;True;False;True
1;RUNGIS SILIC;CEP;55;MAC;55;01/02/2005;0;07:30;19:00;Parc d'Affaires Silic - 21/23 Place de la Loire;94150;RUNGIS;01 41 05 53 94;rungis.silic@lpcr.fr;LPCR GROUPE;94;;528570229;;les-petits-chaperons-rouges;48.7447045;2.355831500000022;True;True;True;True;False;True
10;LEVALLOIS DANTON;CEP;48;MAC;48;21/05/2007;0;08:00;20:00;46 rue Danton;92300;LEVALLOIS PERRET;01 41 05 58 73;levallois.danton@lpcr.fr;LPCR GROUPE;92;;528570229;;les-petits-chaperons-rouges;48.88921089999999;2.2849886999999853;True;True;True;True;False;True
105_PART;Cergy Saint Christophe;PART;10;Micro-crèche;0;          ;0;07:00;20:00;1 rue de la Grande Ourse;95800;Cergy Saint Christophe;;;;95;Ile-de-france;;Au Village de Nounours;au-village-de-nounours;47.7587878;7.350627300000042;False;True;False;False;False;True
106;MULHOUSE MAF (DSP);DSP;20;MAF;20;01/09/2011;0;07:00;19:30;Les Berges du Bassin - 128 avenue Robert Schumann;68200;MULHOUSE;03 83 22 19 02;mulhouse@lpcr.fr;LPCR MULHOUSE;68;;533771101;;;47.7587878;7.350627300000042;True;True;True;True;False;False
107;CHILLY MAZARIN;CEP;26;MAC;26;17/10/2011;0;07:30;19:00;ZI de la Vigne aux Loups - 3 rue Blaise Pascal;91380;CHILLY MAZARIN;01 55 90 44 46;chilly.mazarin@lpcr.fr;LPCR GROUPE;91;;528570229;;les-petits-chaperons-rouges;48.7063244;2.3164970000000267;True;True;True;True;False;True
109_PART;Balou 1;PART;65;Mac;0;          ;0;08:00;18:00;53 cour Julien;13006;Marseille;;;;13;;;Balou Crèche;balou-creche;43.29388960;5.38377020;True;True;False;True;False;True
11;LUDRES;CEP;40;MAC;40;06/07/2007;0;07:30;18:30;77 rue Pascal;54710;LUDRES;03 83 22 19 09;ludres@lpcr.fr;LPCR GROUPE;54;;528570229;;les-petits-chaperons-rouges;48.6190711;6.178015500000015;True;True;True;True;False;True
113_PART;KIDS HEAVEN;PART;10;Micro-crèche;0;          ;0;07:30;18:30;6 chemin des Prêles;38240;Meylan;;;;;;;COOCOON;coocoon;45.20851860;5.78540660;True;True;True;True;False;True
117_PART;Les P'tits Flamants;PART;30;Mac;0;          ;0;06:15;18:10;Centre Hospitalier d'Arles;13633;Arles;;;;13;;;Crèches de France;creches-de-france;43.67664700;4.62777690;True;True;True;True;False;True
120;JOUY EN JOSAS;CEP;47;MAC;60;27/08/2012;0;07:30;19:00;21 rue Albert Calmette;78350;JOUY EN JOSAS;01 41 05 76 65;jouy.en.josas@lpcr.fr;LPCR GROUPE;78;;528570229;;les-petits-chaperons-rouges;48.7726188;2.1674629000000323;True;True;True;True;False;True
121;RUNGIS COUTURE;CEP;36;MAC;36;01/09/2013;0;07:30;19:00;44 rue de la Couture - immeuble Kingston CP20182;94563;RUNGIS CEDEX;01 41 05 76 68;rungis.couture@lpcr.fr;LPCR GROUPE;94;;528570229;;les-petits-chaperons-rouges;48.74397620000001;2.351507399999946;True;True;True;True;False;True
122;THIVERVAL ALSH;CEP;30;ALS;30;06/04/2012;0;07:30;18:30;Site de Folleville - RD 119;78850;THIVERVAL GRIGNON;01 30 55 14 32;thiverval.alsh@lpcr.fr;LPCR GROUPE;78;;528570229;;les-petits-chaperons-rouges;48.84839469999999;1.9094135999999935;True;True;True;True;False;True
1249_PART;Centre Joyeux Bearn;PART;72;Mac;0;          ;0;8:15;18:15;1 Avenue de Saragosse;64000;Pau;;;;;;;CENTRE JOYEUX BEARN;;43.3069631;-0.35375120000003335;False;True;True;True;False;True
1255_PART;Les Happy de Saint-Cyr;PART;10;;0;01/01/2017;1;08:00;19:00;53/57 Avenue Pierre Curie;78210;Saint-Cyr-L'Ecole;;;;;;;HAPPY EVEIL;;48.7981443;2.065699900000027;True;True;True;True;False;True
1268_PART;P'tits Loups de Mer;PART;36;MAC;0;          ;3;07:00;19:30;460 rue Jurien de la Gravière;29200;Brest;;;;29;;;MUTUALITE ENFANCE FAMILLE;;48.38655139999999;-4.47506020000003;True;True;True;True;False;True
1269_PART;Infanterix Neuhausen;PART;48;MAC;0;          ;4;08:00;17:30;Leonrodstraße 46;80636;Munich;;;;;;;INFANTERIX;;48.1566747;11.543481499999984;True;True;False;True;False;True
127;BOUGUENAIS;CEP;43;MAC;43;04/09/2012;0;07:30;19:00;Rue Charles Lindberg;44340;BOUGUENAIS;09 80 84 35 54;bouguenais@lpcr.fr;LPCR GROUPE;44;;528570229;;les-petits-chaperons-rouges;47.155055;-1.5983397999999625;True;True;True;True;False;True
1273_PART;Moosach;PART;24;MAC;0;          ;2;08:00;17:30;Hanauerstraße 1;80992;Munich;;;;;;;INFANTERIX;;48.17334999999999;11.528239999999983;True;True;False;True;False;True
1279_PART;Les Bébés du Moulin;PART;10;Micro-crèche;0;          ;1;;;Champ du Moulin;12850;Sainte Radegonde;;;;12;;;Crèches Expansion;;44.336703;2.6270379999999705;False;False;False;False;False;True
1280_PART;Les Barbanniers;PART;45;MAC;0;          ;3;07:45;19:45;5 Allée des Barbanniers;92230;Gennevilliers;;;;;;;CAP ENFANT;;48.93611449999999;2.3049409999999853;True;False;False;False;False;True
1281_PART;Euclide;PART;80;MAC;0;01/04/2011;3;08:00;19:30;141 Rue Michel Carré;95100;Argenteuil;;;;95;;;CAP ENFANT;;48.9312912;2.232790799999975;True;False;False;False;False;False
131;SAINT FONS;CEP;26;MAC;26;30/10/2013;0;07:15;18:15;5 rue Paul Bert;69190;SAINT FONS;04 37 46 45 25;saint.fons@lpcr.fr;LPCR GROUPE;69;;528570229;;les-petits-chaperons-rouges;45.7072033;4.856324500000028;True;True;True;True;False;True
135_PART;Les Lucioles;PART;50;Mac;0;          ;0;07:30;19:30;3 rue Aristide Maillol;77600;Bussy Saint Georges;;;;77;;;Crèches de France;creches-de-france;48.83779400;2.71252560;False;True;True;True;False;True
137_PART;Les Abeilles;PART;55;Mac;0;          ;0;07:30;19:30;20 avenue de la République;92500;Rueil Malmaison;;;;;;;Crèches de France;creches-de-france;48.8804572;2.1752243999999337;True;True;True;True;False;True
140_PART;Estrella;PART;30;Mac;0;          ;0;07:30;20:30;32 rue du Bois de Moussay;93240;Stains;;;;93;;;Crèches de France;creches-de-france;48.95587110;2.36897570;True;True;True;True;False;True
143;GEX GEX (DSP);DSP;40;MAC;40;01/01/2013;0;07:00;19:00;6 place Georges Charpak;01170;GEX;04 37 46 17 76;gex.gex@lpcr.fr;LPCR GEX;01;;790258669;;;46.3375891;6.0658952;True;True;True;True;False;False
145;COLOMBES;DSP;55;MAC;55;01/04/2013;0;07:30;19:00;13 rue de la Cerisaie;92700;COLOMBES;01 41 19 28 20;colombes@lpcr.fr;LPCR COLOMBES;92;;792511099;;;48.9115827;2.2319956000000047;True;True;True;True;False;False
285;LES MALICIEUX DE REINACH;-;10;MIC;10;05/09/2017;0;07:30;19:00;19 rue Salomon Reinach;69007;LYON;;lyon.reinach@crechesetmalices.com;LPCR GROUPE;69;;528570229;;;45.7522634;4.840021900000011;True;True;True;True;False;False
290;LES MALICIEUX DU VIEUX VERSAILLES;-;10;MIC;10;21/11/2016;0;08:30;19:00;6 rue du Vieux Versailles;78000;VERSAILLES;;versailles.vieux@crechesetmalices.com;LPCR GROUPE;78;;528570229;;;48.8009738;2.12154350000003;True;True;True;True;False;False
297;LES MALICIEUX DU TAILLAN;-;0;MIC;0;01/01/2017;0;07:30;18:30;45 Route de SOULAC;33320;LE TAILLAN MEDOC;;letaillan.soulac@crechesetmalices.com;LPCR GROUPE;33;;528570229;;;44.9019454;-0.6696059999999306;True;True;True;True;False;False
3;COURTABOEUF;CEP;60;MAC;60;26/08/2006;0;07:30;19:00;12 avenue du Québec;91140;VILLEBON SUR YVETTE;01 41 05 53 98;courtaboeuf@lpcr.fr;LPCR GROUPE;91;;528570229;;les-petits-chaperons-rouges;48.6882068;2.211177799999973;True;True;True;True;False;True
300;PARIS 16 SUCHET (ART.30);-;0;-;0;03/10/2016;0;07:30;19:00;93, Boulevard Suchet/Gare d'Auteuil;75016;PARIS;;paris.16@lpcr.fr;LPCR COLLECTIVITES PUBLIQUES;75;;494149990;;;48.84957259999999;2.259710700000028;True;True;True;True;False;False
313;AUBERVILLIERS ANNICKE KELEBE (DSP);-;0;-;0;19/09/2016;0;07:30;19:00;15/15 bis avenue de la République;93300;AUBERVILLIERS;01 74 73 39 63;aubervilliers.ak@lpcr.fr;LPCR AUBERVILLIERS ANNICKE KELEBE;93;;821 079 159;;;48.91283;2.3834898999999723;True;True;True;True;False;False
314_PART;Happy Babies;PART;32;Mac;0;          ;0;07:30;19:30;52 rue Saint Gabriel;14000;Caen;;;;;;;Léa et Léo ;lea-et-leo-groupe;49.18782460;-0.37761590;False;True;True;False;False;True
315_PART;Au Bord de l'Eau;PART;48;Mac;0;          ;0;07:30;19:30;Avenue de la troisième Division d'Infanterie Britannique;14200;Hérouville Saint Clair;;;;;;;Léa et Léo ;lea-et-leo-groupe;49.21995280;-0.34661520;True;True;True;False;False;True
317_PART;Le Jardin Enchanté;PART;20;Mac;0;          ;0;07:30;19:30;Chemin de la Millière;14500;Vire;;;;;;;Léa et Léo ;lea-et-leo-groupe;48.83778100;-0.88848200;True;True;True;False;False;True
320;LES MALICIEUX DE TECHNOLAC;CEP;10;MIC;10;15/12/2016;0;08:00;19:00;2 allée du Lac de Constance Résidence Van Gogh;73370;LE BOURGET DU LAC;;lebourget.technolac@crechesetmalices.com;LPCR GROUPE;73;;528570229;;creches-et-malices;45.649392;5.859075999999959;True;True;True;True;False;True
323_PART;Les Mouss'a Yon;PART;43;Mac;0;          ;0;07:30;19:30;12 impasse Bernard Lyot;85000;La Roche sur Yon;;;;;;;Léa et Léo ;lea-et-leo-groupe;46.70819070;-1.42649930;False;True;True;False;False;True
324_PART;Valence;PART;34;Mac;0;          ;0;07:30;19:00;13 rue Henri Rey ;26000;Valence;;;;;;;Les Grabouilles;les-grabouilles;44.91839630;4.93399080;True;True;True;True;False;True
326_PART;Saint Antoine;PART;10;Micro-crèche;0;          ;0;07:00;19:00;55 chemin de la Chapelle Saint Antoine;6130;Grasse;;;;6;;;Les Lapinous;les-lapinous;43.64542290;6.93107130;True;True;True;True;False;True
332_PART;Les Laitières;PART;44;Mac;0;          ;0;08:00;19:00;10 bis rue des Laitières;94300;Vincennes;;;;;;;Les Petites Canailles;les-petites-canailles;48.84837490;2.42508950;False;True;True;True;False;True
335_PART;2 Micro crèches Jouffroy d'Abbans;PART;10;Micro-crèche;0;          ;0;08:00;19:30;91 rue Jouffroy d'Abbans;75017;Paris;;;;75;;;Les Petites Crèches;les-petites-creches;48.88240700;2.30287110;False;True;True;False;False;True
34_PART;Les Bambins de la Colonie;PART;10;Micro-crèche;0;          ;0;08:30;19:00;77 rue de la Colonie;75013;Paris;;;;75;;;La Cabane des Bambins;la-cabane-des-bambins;48.82398950;2.35246790;False;True;True;True;False;True
340_PART;Premiers Copains des Chérubins;PART;10;Micro-crèche;0;          ;0;07:30;18:30;13 rue de Valenton;94470;Boissy Saint Léger;;;;;;;La Compagnie des Crèches les Chérubins;;48.74718310;2.51151750;True;True;True;True;True;False
346_PART;Palissy;PART;16;Mac;0;          ;0;07:30;19:00;85 rue Bernard Palissy;59100;Roubaix;;;;59;;;Rigolo Comme la Vie;rigolo-comme-la-vie;50.67432080;3.17833570;True;True;True;True;False;True
350_PART;Jules Guesdes;PART;16;Mac;0;          ;0;08:00;18:30;106 rue Jules Guesdes;59510;Hem;;;;59;;;Rigolo Comme la Vie;rigolo-comme-la-vie;50.65546880;3.19093830;True;True;True;True;False;True
353_PART;Piccolino;PART;10;Micro-crèche;0;          ;0;07:30;19:30;17 rue de la Source;35230;Bourgbarré;;;;35;;;Tee Conseil et Gestion;tee-conseil-et-gestion-piccolino;47.99724690;-1.62551040;True;True;True;True;False;True
362_PART;Bézannes;PART;70;Mac;0;          ;0;07:15;19:10;2 rue Romain Rolland;51430;Bézannes;;;;;;;L'Anjeux;l-anjeux;49.21915160;4.00004440;True;True;True;True;False;True
365_PART;La Tartine;PART;25;Mac;0;          ;0;07:30;18:30;26 rue Saint Sébastien;13006;Marseille;;;;;;;Maison de la Famille Marseille;maison-de-la-famille-marseille;43.28507320;5.38238210;False;True;True;True;False;True
381_PART;Tipitwo;PART;60;Mac;0;          ;0;07:30;19:00;50 avenue de Pontoise;78300;Poissy;;;;;;;Sogecrèche;sogecreche;48.95024740;2.06177450;True;True;True;True;False;True
388_PART;Ecquevilly;PART;40;Mac;0;          ;0;07:30;18:30;25 avenue des Motelles;78920;Ecquevilly;;;;78;;;Camaïeu;camaieu;48.95608510;1.91766210;True;True;True;True;False;True
405_PART;Princesse Palatine;PART;10;Micro-crèche;0;          ;0;08:30;19:00;45 quai du Docteur Dervaux;92600;Asnières sur Seine;;;;;;;Zazzen;zazzen;48.90572120;2.28836520;True;True;True;True;False;True
411_PART;Jardins de la Paix 2;PART;10;Micro-crèche;0;          ;0;08:30;19:00;24 rue de la Paix;94300;Vincennes;;;;;;;Zazzen;zazzen;48.85000170;2.43238900;False;True;True;True;False;True
414_PART;2 Micro crèches Isis & Fénélice;PART;10;Micro-crèche;0;01/01/1900;0;08:00;18:30;4 place de la Fontaine;94800;Villejuif;;;;94;;;Théo et Théa;theo-et-thea;48.79153890;2.36585520;False;True;True;True;False;True
272_PART;Capucine;PART;50;Mac;0;          ;0;08:00;19:30;55 avenue Gambetta;92400;Courbevoie;;;;92;;;Kids'Up;kids-up;48.89360190;2.24705390;False;True;True;True;False;True
273;LES MALICIEUX DU GENERAL DE GAULLE;CEP;10;MIC;10;05/09/2016;0;07:45;18:45;4 avenue du Général de Gaulle;33290;BLANQUEFORT;05 24 44 07 90;blanquefort.degaulle@crechesetmalices.com;LPCR GROUPE;33;;528570229;;creches-et-malices;44.907903;-0.6388110000000324;True;True;True;True;False;True
273_PART;Clématite;PART;44;Mac;0;          ;0;07:30;19:00;165 boulevard de Valmy;92700;Colombes;;;;92;;;Kids'Up;kids-up;48.93536330;2.25412310;True;True;True;True;False;True
278;LES MALICIEUX DE LODI;CEP;10;MIC;10;05/09/2016;0;08:30;18:30;103 rue de Lodi;13006;MARSEILLE;04 13 42 20 90;marseille.lodi@crechesetmalices.com;LPCR GROUPE;13;;528570229;;creches-et-malices;43.28772230000001;5.388960999999995;True;True;True;True;False;True
282_PART;Blanche;PART;10;Micro-crèche;0;          ;0;08:30;19:00;96 rue Blanche;75009;Paris;;;;75;;;La Marmotière;la-marmotiere;48.88301870;2.33228320;False;True;True;True;False;True
284_PART;Les Carillons;PART;10;Micro-crèche;0;          ;0;07:30;19:30;1 rue Carry;69003;Lyon;;;;69;;;La Mutualite Française du Rhône;;45.75466350;4.87179440;False;False;False;False;True;False
291_PART;Les Petits Léonard;PART;30;Mac;0;          ;0;07:30;19:30;57 avenue Paul Kräger;69100;Villeurbanne;;;;69;;;La Mutualite Française du Rhône;;45.75619480;4.89707870;False;False;False;False;True;False
293;CANNES;CEP;31;MAC;41;05/09/2016;0;07:30;18:30;280 avenue Michel Jourdan-;06150;CANNES LA BOCCA;04 83 88 00 47;cannes@lpcr.fr;LPCR GROUPE;06;;528570229;;les-petits-chaperons-rouges;43.5706689;6.958379599999944;True;True;True;True;False;True
299;BOULOGNE MANEGE ET CARROUSEL (DSP);DSP;74;MAC;74;01/09/2016;0;08:00;19:30;40 rue de Sèvres;92100;BOULOGNE BILLANCOURT;01 78 16 66 90;boulogne.manege@lpcr.fr;LPCR DSP BOULOGNE Manège et Carrousel;92;;817651755;;;48.835116;2.2279029999999693;True;True;True;True;False;False
301;LES MALICIEUX DE LA REPUBLIQUE;;0;;0;09/01/2017;0;;;57 avenue de la République;94100;SAINT MAUR DES FOSSES;;stmaur.republique@crechesetmalices.com;LPCR GROUPE;94;;528570229;;;48.7995379;2.486143800000036;True;True;True;True;False;False
318;PARIS 11 VILLA MARCES (ART.30);-;0;-;0;01/12/2016;0;07:30;19:00;27-35 rue Bréguet Villa Marcès;75011;PARIS;;paris.11@lpcr.fr;LPCR COLLECTIVITES PUBLIQUES;75;;494149990;;;48.85799300000001;2.3811530000000403;True;True;True;True;False;False
328_PART;Rouret;PART;10;Micro-crèche;0;          ;0;07:00;19:00;64 route de Nice;6650;Le Rouret;;;;6;;;Les Lapinous;les-lapinous;43.67439590;7.00948260;True;True;True;True;False;True
329_PART;Pic Puces;PART;10;Micro-crèche;0;          ;0;08:00;19:00;59 rue de Picpus;75012;Paris;;;;75;;;Les Nouvelles Crèches;les-nouvelles-creches;48.84257680;2.39796310;False;True;True;True;False;True
334_PART;2 Micro crèches Yvette;PART;10;Micro-crèche;0;          ;0;08:00;19:30;38 rue de l'Yvette;75016;Paris;;;;75;;;Les Petites Crèches;les-petites-creches;48.85395080;2.26607600;False;True;True;False;False;True
343_PART;Léon Marlot;PART;22;Mac;0;          ;0;07:30;19:00;170 rue Léon Marlot;59100;Roubaix;;;;59;;;Rigolo Comme la Vie;rigolo-comme-la-vie;50.67372470;3.19327840;True;True;True;True;False;True
349_PART;Jardin des Orchidées ;PART;25;Mac;0;          ;0;08:30;19:00;75 bis rue de la Cloche;59200;Tourcoing;;;;59;;;Rigolo Comme la Vie;rigolo-comme-la-vie;50.72345340;3.16406960;True;True;True;True;False;True
352_PART;Piccolino;PART;10;Micro-crèche;0;          ;0;06:00;21:00;3 rue Jules Maillard de la Gournerie;35000;Rennes;;;;35;;;Tee Conseil et Gestion;tee-conseil-et-gestion-piccolino;48.11532230;-1.71304840;True;True;True;True;False;True
354_PART;Piccolino;PART;10;Micro-crèche;0;          ;0;07:30;19:30;9 impasse Louison Bobet;35230;Orgeres;;;;35;;;Tee Conseil et Gestion;tee-conseil-et-gestion-piccolino;47.99471480;-1.66950710;True;True;True;True;False;True
357_PART;Le Patio;PART;10;Micro-crèche;0;          ;0;08:00;18:30;21 place Mirès;13002;Marseille;;;;13;;;UB4 Kids;ub4-kids;43.31089540;5.36902140;True;True;False;False;False;True
358_PART;Coco Plume;PART;10;Micro-crèche;0;          ;0;08:00;18:30;5 impasse de la Papeterie;13005;Marseille;;;;13;;;UB4 Kids;ub4-kids;43.28728970;5.39588990;True;True;False;False;False;True
364_PART;Doménil;PART;10;Micro-crèche;0;          ;0;08:00;19:00;157 avenue Daumesnil;75012;Paris;;;;75;;;Les Nouvelles Crèches;les-nouvelles-creches;48.84143280;2.38837650;False;True;True;True;False;True
38_PART;SIVU ENFANCE JEUNESSE;PART;30;MAC;0;          ;0;07:30;18:30;Rue Calmette;16340;l'Isle d'Espagnac;;;;16;;;SIVU;;48.862725;2.287592000000018;True;True;True;True;False;True
383_PART;Les Angelots;PART;66;Mac;0;          ;0;08:00;18:00;73 boulevard Ange Martin;13190;Allauch;;;;;;;Crèches du Sud;creches-du-sud;43.33273250;5.46301100;True;True;True;True;False;True
390_PART;Choron;PART;10;Micro-crèche;0;          ;0;08:30;19:00;14 rue Choron;75009;Paris;;;;;;;La Marmotière;la-marmotiere;48.87760470;2.34101430;False;True;True;True;False;True
412_PART;Charenton le Pont;PART;10;Micro-crèche;0;          ;0;08:30;19:00;178 rue de Paris;94220;Charenton le Pont;;;;94;;;Club Biberon;club-biberon;48.82943830;2.40191020;False;True;True;True;False;True
432_PART;Multi accueil de la Canardiere;PART;80;Mac;0;          ;0;05:30;22:00;53 rue de la Canardière;67100;Strasbourg ;;;;;;;AASBR;;48.54872450;7.75106300;True;True;True;True;True;False
446_PART;Marseille;PART;10;Micro-crèche;0;          ;0;08:00;18:00;171 chemin de la Madrague;13002;Marseille;;;;;;;Au Pays de Floriane;au-pays-de-floriane;43.32782030;5.35933620;True;False;False;False;False;True
449_PART;Les Petits Lutins;PART;10;Micro-crèche;0;          ;0;07:30;19:30;2 b rue des Prés;80330;Cagny;;;;;;;Au Pays des Enfants;au-pays-des-enfants;49.86215030;2.34487720;True;True;False;False;False;False
387_PART;2 Micro crèches Les Tipis de Mézy sur Seine;PART;10;Micro-crèche;0;          ;0;07:30;19:00;31 rue Alfred Lasson;78250;Mézy sur Seine;;;;;;;Tribu Verte;tribu-verte;49.00209420;1.87972420;True;False;False;False;False;True
394_PART;Villiers;PART;10;Micro-crèche;0;          ;0;08:00;19:30;3 rue Larribe;75008;Paris;;;;;;;Les Petits Tourbillons;les-petits-tourbillons;48.88042550;2.31808760;False;True;True;True;False;True
419_PART;Ferdinand Brunot;PART;10;Micro-crèche;0;          ;0;08:30;19:00;36 rue Liancourt;75014;Paris;;;;;;;Zazzen;zazzen;48.83458030;2.32594590;False;True;True;True;False;True
429_PART;Micro crèche Strasbourg;PART;10;Micro-crèche;0;          ;0;07:00;19:00;219 route de Schirmeck;67200;Strasbourg;;;;;;;AASBR;;48.56356520;7.70451310;True;True;True;True;True;False
441_PART;L'Orange Bleue;PART;31;Mac;0;          ;0;07:30;19:30;25 avenue de Strasbourg;93130;Noisy le Sec;;;;;;;Agapi;agapi;48.89680440;2.46481370;True;True;True;True;False;True
442_PART;Minid'Hom;PART;16;Mac;0;          ;0;07:30;19:00;38 rue Alfred Labrière;95100;Argenteuil;;;;;;;Agapi;agapi;48.94559550;2.25485580;False;True;True;True;False;True
445_PART;Le Château;PART;10;Micro-crèche;0;          ;0;07:30;19:00;4 sente des Châteaux;27200;Vernon;;;;;;;Am Stram Gram;amstramgram;49.08995400000001;1.462391000000025;True;True;True;False;False;False
447_PART;3 Micro crèches Domont;PART;10;Micro-crèche;0;          ;0;07:30;19:30;Résidence Michelange 11 chemin des Marais;95330;Domont;;;;;;;Au Pays des Enfants;au-pays-des-enfants;49.03519480;2.33136850;True;True;False;False;False;False
450_PART;Neuville sur Oise;PART;10;Micro-crèche;0;          ;0;07:00;20:00;2 rue Sébastien de la Grande;95000;Neuville sur Oise;;;;;;;Au Village de Nounours;au-village-de-nounours;49.01752889999999;2.057310199999961;False;True;False;False;False;True
469_PART;Graine d'Eveil Eurocentre;PART;30;Mac;0;          ;0;07:30;19:00;8 impasse Saint Guillan;31620;Castelnau D'Estretefonds;;;;;;;Bébé Biz;bebe-biz;43.7701107;1.361693100000025;True;True;True;True;False;True
478_PART;Les Minipouss' Basso Combo;PART;53;Mac;0;          ;0;07:30;19:00;11 rue Paulin Talabot;31000;Toulouse;;;;;;;Bébé Biz;bebe-biz;43.5643143;1.3876127999999426;True;True;True;True;False;True
481_PART;Les Pirâtes;PART;32;Mac;0;          ;0;06:45;20:00;1 ter allée Fraixinet;31120;Rques sur Garonne;;;;;;;Bébé Biz;bebe-biz;43.5134437;1.3704797999999982;True;True;True;True;False;True
49;AIX DSP ILE AUX ENFANTS;DSP Aix;60;MAC;60;08/09/1985;0;07:30;18:30;16 bis chemin de Saint Donat;13100;AIX EN PROVENCE;04 42 23 14 80;ile.aux.enfants@lpcr.fr;LPCR DSP AIX;13;;508776150;;;43.5401525;5.452796900000067;True;True;True;True;False;False
493_PART;Saint Denis;PART;10;Micro-crèche;0;          ;0;08:30;19:00;36 boulevard Ornano;93200;Saint Denis;;;;;;;Club Biberon;club-biberon;48.91526020;2.34414910;False;True;True;True;False;True
497_PART;Les Explorateurs de Bezout;PART;10;Micro-crèche;0;          ;0;08:30;19:00;27 rue Bezout;75014;Paris;;;;;;;Crecheo;crecheo;48.8288473;2.330723300000045;False;True;True;True;False;True
499_PART;Les Explorateurs de Cambronne;PART;10;Micro-crèche;0;          ;0;08:30;19:00;12 rue de la Croix Nivert;75015;Paris;;;;;;;Crecheo;crecheo;48.8342775;2.289850300000012;True;True;True;True;False;True
50_PART;Javel;PART;10;Micro-crèche;0;          ;0;08:30;19:30;16 rue Cauchy;75015;Paris;;;;75;;;Baboune;baboune;48.84294640;2.27598710;False;True;True;True;False;True
500_PART;2 Micro crèches Les Petites Lucioles 1 & 2;PART;10;Micro-crèche;0;          ;0;;;132 route du Bois de Nèfles ;97490;Sainte Clotilde;;;;;;;Crèches Babyland;creches-babyland;-20.89212520;55.47410560;False;False;False;False;False;True
501_PART;2 Micro crèches Microline 1 & 2;PART;10;Micro-crèche;0;          ;0;;;Route du bois de Nèfles ;97490;Sainte Clotilde;;;;;;;Crèches Babyland;creches-babyland;-20.88850430;55.45804810;False;False;False;False;False;True
503_PART;Beausejour;PART;60;Mac;0;          ;0;;;9 rue du Triangle ;97438;Sainte Marie;;;;;;;Crèches Babyland;creches-babyland;-20.91402550;55.51220200;False;False;False;False;False;True
506_PART;Les Alamandas;PART;44;Mac;0;          ;0;;;10 rue des Sables;97400;Saint Denis;;;;;;;Crèches Babyland;creches-babyland;-20.87486360;55.45144130;False;False;False;False;False;True
51;AIX DSP BOUTCHOUS;DSP Aix;37;MAC;37;16/09/1991;0;07:30;18:30;Allée des Amandiers - ZAC des Deux Ormes - Jas de Bouffan;13090;AIX EN PROVENCE;04 42 20 00 19;boutchous@lpcr.fr;LPCR DSP AIX;13;;508776150;;;43.5320779;5.411587599999962;True;True;True;True;False;False
510_PART;Les Petits Capucins Chaloupe;PART;10;Micro-crèche;0;          ;0;;;16 chemin de Vaudeville ;97416;La Chaloupe Saint Leu;;;;;;;Crèches Babyland;creches-babyland;-21.17367700;55.29032500;False;False;False;False;False;True
513_PART;Les Petits Dauphins;PART;60;Mac;0;          ;0;;;15 ruelle Rivière Groupe Ariane II;97490;Sainte Clotilde;;;;;;;Crèches Babyland;creches-babyland;-20.901435;55.50180439999997;False;False;False;False;False;True
514_PART;Les Poinsettias;PART;42;Mac;0;          ;0;;;16 chemin de l'Ime ;97400;Saint Denis;;;;;;;Crèches Babyland;creches-babyland;-20.89105950;55.42526780;False;False;False;False;False;True
518_PART;Les Alouettes;PART;39;Mac;0;          ;0;07:30;19:30;150 avenue Maurane Saulnier;78530;Buc;;;;;;;Crèches de France;creches-de-france;48.76682550;2.11748920;True;True;True;True;False;True
519_PART;Polyclinique Saint Privat;PART;20;Mac;0;          ;0;06:30;20:00;6 rue de la Margeride;34760;Boujan sur Libron;;;;;;;Crèches de France;creches-de-france;43.36648240;3.25626900;True;True;True;True;False;True
537_PART;3 Micro crèches Les P'tits Rigolos et les Aventuriers;PART;10;Micro-crèche;0;          ;0;08:00;19:00;104 boulevard Jean Jaurès;78800;Houilles;;;;;;;Crèches Expansion;creches-expansion;48.92081430;2.19878070;False;True;True;True;False;True
379_PART;Charonne;PART;10;Micro-crèche;0;          ;0;08:30;19:30;22 rue Emile Lepeu;75011;Paris;;;;;;;Baboune;baboune;48.85574090;2.38816710;False;True;True;True;False;True
38;NOISY LE GRAND;CEP;45;MAC;45;22/09/2009;0;07:30;19:00;17/19 boulevard du Mont d'Est;93160;NOISY LE GRAND;01 41 05 58 74;noisy.le.grand@lpcr.fr;LPCR GROUPE;93;;528570229;;les-petits-chaperons-rouges;48.8434447;2.5477935999999772;True;True;True;True;False;True
380_PART;Boissière;PART;10;Micro-crèche;0;          ;0;08:30;19:30;17 rue Boissière;75116;Paris;;;;;;;Baboune;baboune;48.86585180;2.29183770;False;True;True;True;False;True
386_PART;Petit Karlito;PART;10;Micro-crèche;0;          ;0;08:00;18:30;12 avenue Maximilien Robespierre;94400;Vitry sur Seine;;;;;;;Théo et Théa;theo-et-thea;48.79110560;2.38749390;False;True;True;True;False;True
391_PART;2 Micro crèches Jules et Juliette;PART;10;Micro-crèche;0;          ;0;06:00;20:00;6 rue de la Sablière;21000;Dijon;;;;;;;Les Paradis de Jules et Juliette;les-paradis-de-jules-et-juliette;47.3300046;5.042740200000026;True;True;False;True;False;True
397_PART;Bay Bee 2 Rêve;PART;30;Mac;0;          ;0;08:00;19:30;30 rue d'Issy;92100;Boulogne Billancourt;;;;;;;Baybee 2 Rêve;baybee2reve;48.82990730;2.24257370;False;True;True;True;False;True
4;MONTPELLIER EUROMEDECINE;CEP;60;MAC;60;06/09/2006;0;07:30;19:00;Parc Euromédecine - 1722 rue de Malbosc;34080;MONTPELLIER;04 67 03 03 56;montpellier.euromedecine@lpcr.fr;LPCR GROUPE;34;;528570229;;les-petits-chaperons-rouges;43.63842259999999;3.827195399999937;True;True;True;True;False;True
40_PART;Guyancourt;PART;45;Mac;0;          ;0;08:00;19:00;8 boulevard des Chênes;78280;Guyancourt;;;;;;;Les Petites Canailles;les-petites-canailles;48.78910370;2.05252900;True;True;True;True;False;True
407_PART;Le Berceau des Rois;PART;17;Mac;0;          ;0;08:00;19:00;25 rue Maréchal Joffre;78000;Versailles;;;;;;;Société de Gestion de Crèche;sgc;48.79502330;2.12150920;False;True;True;True;False;False
417_PART;2 Micro crèches Sartrouville;PART;10;Micro-crèche;0;          ;0;08:00;19:00;11 avenue Jules Ferry;78500;Sartrouville;;;;;;;Crèches Sartrouville;;48.94021830;2.15798770;True;True;True;True;True;False
426_PART;Crèche familiale Centre ville Nord;PART;100;Mac;0;          ;0;06:30;20:30;72 rue Jacques Kablé;67000;Strasbourg ;;;;;;;AASBR;;48.59355410;7.75726280;True;True;True;True;True;False
431_PART;Multi accueil de Hautepierre;PART;60;Mac;0;          ;0;07:00;18:30;19 rue Gioberti;67200;Strasbourg ;;;;;;;AASBR;;48.59173000;7.70000460;True;True;True;True;True;False
436_PART;Multi accueil des Poteries;PART;100;Mac;0;          ;0;05:00;22:00;10 rue Jean Geoffroy Conrath;67200;Strasbourg ;;;;;;;AASBR;;48.58723010;7.69322530;True;True;True;True;True;False
437_PART;Multi accueil Franco Allemand;PART;60;Mac;0;          ;0;07:00;18:30;172 route du Rhin;67000;Strasbourg ;;;;;;;AASBR;;48.57133270;7.79632450;True;True;True;True;True;False
448_PART;Chanteloup;PART;10;Micro-crèche;0;          ;0;07:30;19:30;6 rue des Terres Fortes;77600;Chanteloup en Brie;;;;;;;Au Pays des Enfants;au-pays-des-enfants;48.85304660;2.74138390;True;True;False;False;False;False
45_PART;Le Jardin Doré;PART;24;Mac;0;          ;0;07:30;19:30;79 bis rue Madame;75006;Paris;;;;75;;;Crèches de France;creches-de-france;48.84597470;2.33175330;True;True;True;True;False;True
456_PART;Il était une fois;PART;40;Mac;0;          ;0;;;2 impasse des Pontils;31500;Toulouse;;;;;;;Baby Novars;baby-novars;43.5922247;1.4794306000000006;False;False;False;False;False;False
46;AIX DSP CALIN CALINE;DSP Aix;40;MAC;40;01/02/1980;0;07:30;18:30;Groupe Scolaire du Val Saint André - Rue René Cassin;13100;AIX EN PROVENCE;04 42 27 52 01;calin.caline@lpcr.fr;LPCR DSP AIX;13;;508776150;;;43.5203812;5.4673513000000185;True;True;True;True;False;False
461_PART;Etrepagny;PART;10;Micro-crèche;0;          ;0;07:30;18:30;2 rue Defontenay;27150;Etrepagny;;;;;;;Baby Village;baby-village;49.3083442;1.6125776000000087;True;True;False;True;False;True
